[
  {
    "name": "Waterloo Honda",
    "coordinates": {
      "lat": 43.498589,
      "lng": -80.5310432
    },
    "longitude": -80.5310432,
    "latitude": 43.498589,
    "types": [
      "car_repair",
      "car_dealer",
      "store",
      "point_of_interest",
      "establishment"
    ]
  },
  {
    "name": "Waterloo Nissan",
    "coordinates": {
      "lat": 43.496913,
      "lng": -80.545052
    },
    "longitude": -80.545052,
    "latitude": 43.496913,
    "types": [
      "car_repair",
      "car_dealer",
      "store",
      "point_of_interest",
      "establishment"
    ]
  },
  {
    "name": "Forbes Motors Chevrolet Buick GMC",
    "coordinates": {
      "lat": 43.46338859999999,
      "lng": -80.5030945
    },
    "longitude": -80.5030945,
    "latitude": 43.46338859999999,
    "types": [
      "car_dealer",
      "car_repair",
      "store",
      "point_of_interest",
      "establishment"
    ]
  },
  {
    "name": "Forbes Waterloo Toyota",
    "coordinates": {
      "lat": 43.480833,
      "lng": -80.5210104
    },
    "longitude": -80.5210104,
    "latitude": 43.480833,
    "types": [
      "car_repair",
      "car_dealer",
      "store",
      "point_of_interest",
      "establishment"
    ]
  },
  {
    "name": "Crosby Volkswagen",
    "coordinates": {
      "lat": 43.4614164,
      "lng": -80.4741284
    },
    "longitude": -80.4741284,
    "latitude": 43.4614164,
    "types": [
      "car_repair",
      "car_dealer",
      "store",
      "point_of_interest",
      "establishment"
    ]
  },
  {
    "name": "Parkway Ford Lincoln",
    "coordinates": {
      "lat": 43.489026,
      "lng": -80.52829790000001
    },
    "longitude": -80.52829790000001,
    "latitude": 43.489026,
    "types": [
      "car_dealer",
      "store",
      "point_of_interest",
      "establishment"
    ]
  },
  {
    "name": "Volkswagen Waterloo",
    "coordinates": {
      "lat": 43.4935265,
      "lng": -80.54512799999999
    },
    "longitude": -80.54512799999999,
    "latitude": 43.4935265,
    "types": [
      "car_repair",
      "car_dealer",
      "store",
      "point_of_interest",
      "establishment"
    ]
  },
  {
    "name": "Forbes Waterloo Mazda",
    "coordinates": {
      "lat": 43.497528,
      "lng": -80.5422821
    },
    "longitude": -80.5422821,
    "latitude": 43.497528,
    "types": [
      "car_repair",
      "car_dealer",
      "store",
      "point_of_interest",
      "establishment"
    ]
  },
  {
    "name": "Wendell Motors Chrysler Jeep Dodge Ram",
    "coordinates": {
      "lat": 43.4199943,
      "lng": -80.4459457
    },
    "longitude": -80.4459457,
    "latitude": 43.4199943,
    "types": [
      "car_repair",
      "car_dealer",
      "store",
      "point_of_interest",
      "establishment"
    ]
  },
  {
    "name": "Heffner Toyota",
    "coordinates": {
      "lat": 43.4262611,
      "lng": -80.4293028
    },
    "longitude": -80.4293028,
    "latitude": 43.4262611,
    "types": [
      "car_repair",
      "car_dealer",
      "store",
      "point_of_interest",
      "establishment"
    ]
  },
  {
    "name": "Heffner Lexus",
    "coordinates": {
      "lat": 43.4266388,
      "lng": -80.4276885
    },
    "longitude": -80.4276885,
    "latitude": 43.4266388,
    "types": [
      "car_repair",
      "car_dealer",
      "store",
      "point_of_interest",
      "establishment"
    ]
  },
  {
    "name": "Stockie Chrysler Dodge Jeep Ram",
    "coordinates": {
      "lat": 43.46470219999999,
      "lng": -80.5037218
    },
    "longitude": -80.5037218,
    "latitude": 43.46470219999999,
    "types": [
      "car_repair",
      "finance",
      "car_dealer",
      "store",
      "point_of_interest",
      "establishment"
    ]
  },
  {
    "name": "Mercedes-Benz Kitchener-Waterloo",
    "coordinates": {
      "lat": 43.4749704,
      "lng": -80.4301048
    },
    "longitude": -80.4301048,
    "latitude": 43.4749704,
    "types": [
      "car_repair",
      "car_dealer",
      "store",
      "point_of_interest",
      "establishment"
    ]
  },
  {
    "name": "Prime Auto Ltd",
    "coordinates": {
      "lat": 43.48143750000001,
      "lng": -80.52314129999999
    },
    "longitude": -80.52314129999999,
    "latitude": 43.48143750000001,
    "types": [
      "car_dealer",
      "store",
      "point_of_interest",
      "establishment"
    ]
  },
  {
    "name": "Paycan Motors",
    "coordinates": {
      "lat": 43.46923999999999,
      "lng": -80.449739
    },
    "longitude": -80.449739,
    "latitude": 43.46923999999999,
    "types": [
      "car_dealer",
      "store",
      "point_of_interest",
      "establishment"
    ]
  },
  {
    "name": "Jerry Zister's Sales & Services Ltd - NAPA AUTOPRO",
    "coordinates": {
      "lat": 43.4377933,
      "lng": -80.4866601
    },
    "longitude": -80.4866601,
    "latitude": 43.4377933,
    "types": [
      "car_repair",
      "car_dealer",
      "store",
      "point_of_interest",
      "establishment"
    ]
  },
  {
    "name": "Scherer Chevrolet Buick GMC Ltd.",
    "coordinates": {
      "lat": 43.41991770000001,
      "lng": -80.4572735
    },
    "longitude": -80.4572735,
    "latitude": 43.41991770000001,
    "types": [
      "car_dealer",
      "store",
      "point_of_interest",
      "establishment"
    ]
  },
  {
    "name": "Sauder's Camping & Truck Accessories",
    "coordinates": {
      "lat": 43.51757560000001,
      "lng": -80.57666309999999
    },
    "longitude": -80.57666309999999,
    "latitude": 43.51757560000001,
    "types": [
      "car_dealer",
      "store",
      "point_of_interest",
      "establishment"
    ]
  },
  {
    "name": "AutoSmarto",
    "coordinates": {
      "lat": 43.4061111,
      "lng": -80.44805559999999
    },
    "longitude": -80.44805559999999,
    "latitude": 43.4061111,
    "types": [
      "car_repair",
      "car_dealer",
      "store",
      "point_of_interest",
      "establishment"
    ]
  },
  {
    "name": "Land Rover Waterloo",
    "coordinates": {
      "lat": 43.497128,
      "lng": -80.5302315
    },
    "longitude": -80.5302315,
    "latitude": 43.497128,
    "types": [
      "car_dealer",
      "store",
      "point_of_interest",
      "establishment"
    ]
  },
  {
    "name": "Auto Expo Inc",
    "coordinates": {
      "lat": 43.4458581,
      "lng": -80.5126846
    },
    "longitude": -80.5126846,
    "latitude": 43.4458581,
    "types": [
      "car_dealer",
      "store",
      "point_of_interest",
      "establishment"
    ]
  },
  {
    "name": "Bustard Chrysler",
    "coordinates": {
      "lat": 43.50093510000001,
      "lng": -80.5276085
    },
    "longitude": -80.5276085,
    "latitude": 43.50093510000001,
    "types": [
      "car_dealer",
      "store",
      "point_of_interest",
      "establishment"
    ]
  },
  {
    "name": "Kraemer Automotive",
    "coordinates": {
      "lat": 43.4914135,
      "lng": -80.53361989999999
    },
    "longitude": -80.53361989999999,
    "latitude": 43.4914135,
    "types": [
      "car_dealer",
      "store",
      "point_of_interest",
      "establishment"
    ]
  },
  {
    "name": "Sherifali Motors",
    "coordinates": {
      "lat": 43.5153976,
      "lng": -80.5578665
    },
    "longitude": -80.5578665,
    "latitude": 43.5153976,
    "types": [
      "car_dealer",
      "store",
      "point_of_interest",
      "establishment"
    ]
  },
  {
    "name": "Baig Auto Sales",
    "coordinates": {
      "lat": 43.5067776,
      "lng": -80.5403098
    },
    "longitude": -80.5403098,
    "latitude": 43.5067776,
    "types": [
      "car_dealer",
      "store",
      "point_of_interest",
      "establishment"
    ]
  },
  {
    "name": "Canada Cars",
    "coordinates": {
      "lat": 43.46891999999999,
      "lng": -80.51503
    },
    "longitude": -80.51503,
    "latitude": 43.46891999999999,
    "types": [
      "car_repair",
      "car_dealer",
      "store",
      "point_of_interest",
      "establishment"
    ]
  },
  {
    "name": "Dial A Tire Ontario",
    "coordinates": {
      "lat": 43.4694235,
      "lng": -80.5136041
    },
    "longitude": -80.5136041,
    "latitude": 43.4694235,
    "types": [
      "car_repair",
      "car_dealer",
      "store",
      "point_of_interest",
      "establishment"
    ]
  },
  {
    "name": "DDM Canada Ltd.",
    "coordinates": {
      "lat": 43.4581227,
      "lng": -80.4943397
    },
    "longitude": -80.4943397,
    "latitude": 43.4581227,
    "types": [
      "electronics_store",
      "car_repair",
      "car_dealer",
      "store",
      "point_of_interest",
      "establishment"
    ]
  },
  {
    "name": "Mat's Auto Sales and Service",
    "coordinates": {
      "lat": 43.4813965,
      "lng": -80.5377297
    },
    "longitude": -80.5377297,
    "latitude": 43.4813965,
    "types": [
      "car_repair",
      "car_dealer",
      "store",
      "point_of_interest",
      "establishment"
    ]
  },
  {
    "name": "Old Is New Again Inc",
    "coordinates": {
      "lat": 43.4883323,
      "lng": -80.51593749999999
    },
    "longitude": -80.51593749999999,
    "latitude": 43.4883323,
    "types": [
      "car_dealer",
      "store",
      "point_of_interest",
      "establishment"
    ]
  },
  {
    "name": "Jaguar Waterloo",
    "coordinates": {
      "lat": 43.4969398,
      "lng": -80.5300614
    },
    "longitude": -80.5300614,
    "latitude": 43.4969398,
    "types": [
      "finance",
      "car_dealer",
      "store",
      "point_of_interest",
      "establishment"
    ]
  },
  {
    "name": "SMP Auto Inc.",
    "coordinates": {
      "lat": 43.479887,
      "lng": -80.47597019999999
    },
    "longitude": -80.47597019999999,
    "latitude": 43.479887,
    "types": [
      "car_dealer",
      "store",
      "point_of_interest",
      "establishment"
    ]
  },
  {
    "name": "3 Bay Auto Sales",
    "coordinates": {
      "lat": 43.43559459999999,
      "lng": -80.48352040000002
    },
    "longitude": -80.48352040000002,
    "latitude": 43.43559459999999,
    "types": [
      "car_dealer",
      "store",
      "point_of_interest",
      "establishment"
    ]
  },
  {
    "name": "Imperial Auto Sales",
    "coordinates": {
      "lat": 43.46760210000001,
      "lng": -80.4502442
    },
    "longitude": -80.4502442,
    "latitude": 43.46760210000001,
    "types": [
      "car_dealer",
      "store",
      "point_of_interest",
      "establishment"
    ]
  },
  {
    "name": "Auto Firm",
    "coordinates": {
      "lat": 43.468926,
      "lng": -80.44871499999999
    },
    "longitude": -80.44871499999999,
    "latitude": 43.468926,
    "types": [
      "car_dealer",
      "store",
      "point_of_interest",
      "establishment"
    ]
  },
  {
    "name": "MINI Grand River",
    "coordinates": {
      "lat": 43.4787729,
      "lng": -80.4263096
    },
    "longitude": -80.4263096,
    "latitude": 43.4787729,
    "types": [
      "car_dealer",
      "store",
      "point_of_interest",
      "establishment"
    ]
  },
  {
    "name": "M MotorSport",
    "coordinates": {
      "lat": 43.4722396,
      "lng": -80.4358103
    },
    "longitude": -80.4358103,
    "latitude": 43.4722396,
    "types": [
      "car_dealer",
      "store",
      "point_of_interest",
      "establishment"
    ]
  },
  {
    "name": "European Style Automotive",
    "coordinates": {
      "lat": 43.4742317,
      "lng": -80.43272390000001
    },
    "longitude": -80.43272390000001,
    "latitude": 43.4742317,
    "types": [
      "car_repair",
      "finance",
      "car_dealer",
      "store",
      "point_of_interest",
      "establishment"
    ]
  },
  {
    "name": "Audi Kitchener-Waterloo",
    "coordinates": {
      "lat": 43.4789164,
      "lng": -80.4294153
    },
    "longitude": -80.4294153,
    "latitude": 43.4789164,
    "types": [
      "car_repair",
      "car_dealer",
      "store",
      "point_of_interest",
      "establishment"
    ]
  },
  {
    "name": "Schlueter Acura",
    "coordinates": {
      "lat": 43.4779725,
      "lng": -80.42706489999999
    },
    "longitude": -80.42706489999999,
    "latitude": 43.4779725,
    "types": [
      "finance",
      "car_dealer",
      "store",
      "point_of_interest",
      "establishment"
    ]
  },
  {
    "name": "BMW Grand River",
    "coordinates": {
      "lat": 43.4785251,
      "lng": -80.4262631
    },
    "longitude": -80.4262631,
    "latitude": 43.4785251,
    "types": [
      "car_dealer",
      "store",
      "point_of_interest",
      "establishment"
    ]
  },
  {
    "name": "Superdeal Autosales LMT",
    "coordinates": {
      "lat": 43.4085635,
      "lng": -80.4496511
    },
    "longitude": -80.4496511,
    "latitude": 43.4085635,
    "types": [
      "car_dealer",
      "store",
      "point_of_interest",
      "establishment"
    ]
  },
  {
    "name": "Kings Auto Sales & Autoglass",
    "coordinates": {
      "lat": 43.5003318,
      "lng": -80.5355072
    },
    "longitude": -80.5355072,
    "latitude": 43.5003318,
    "types": [
      "car_repair",
      "car_dealer",
      "store",
      "point_of_interest",
      "establishment"
    ]
  },
  {
    "name": "Royalty Autohaus by Redline Motors",
    "coordinates": {
      "lat": 43.43783129999999,
      "lng": -80.4755744
    },
    "longitude": -80.4755744,
    "latitude": 43.43783129999999,
    "types": [
      "car_dealer",
      "store",
      "point_of_interest",
      "establishment"
    ]
  },
  {
    "name": "Carimex Auto Sales",
    "coordinates": {
      "lat": 43.46364459999999,
      "lng": -80.5019897
    },
    "longitude": -80.5019897,
    "latitude": 43.46364459999999,
    "types": [
      "car_dealer",
      "car_repair",
      "finance",
      "store",
      "point_of_interest",
      "establishment"
    ]
  },
  {
    "name": "Schlueter Hyundai",
    "coordinates": {
      "lat": 43.5043153,
      "lng": -80.5298548
    },
    "longitude": -80.5298548,
    "latitude": 43.5043153,
    "types": [
      "car_repair",
      "car_dealer",
      "store",
      "point_of_interest",
      "establishment"
    ]
  },
  {
    "name": "Kitchener Hyundai",
    "coordinates": {
      "lat": 43.424644,
      "lng": -80.481291
    },
    "longitude": -80.481291,
    "latitude": 43.424644,
    "types": [
      "car_repair",
      "car_dealer",
      "store",
      "point_of_interest",
      "establishment"
    ]
  },
  {
    "name": "Kitchener Nissan",
    "coordinates": {
      "lat": 43.4720065,
      "lng": -80.4423005
    },
    "longitude": -80.4423005,
    "latitude": 43.4720065,
    "types": [
      "car_repair",
      "finance",
      "car_dealer",
      "store",
      "point_of_interest",
      "establishment"
    ]
  },
  {
    "name": "Fitzgerald Motors Inc.",
    "coordinates": {
      "lat": 43.43856689999999,
      "lng": -80.4792148
    },
    "longitude": -80.4792148,
    "latitude": 43.43856689999999,
    "types": [
      "car_dealer",
      "car_repair",
      "store",
      "point_of_interest",
      "establishment"
    ]
  },
  {
    "name": "Quality Car Sales Inc.",
    "coordinates": {
      "lat": 43.4084021,
      "lng": -80.4494249
    },
    "longitude": -80.4494249,
    "latitude": 43.4084021,
    "types": [
      "finance",
      "car_dealer",
      "store",
      "point_of_interest",
      "establishment"
    ]
  },
  {
    "name": "Kitchener Kia",
    "coordinates": {
      "lat": 43.4252697,
      "lng": -80.48083629999999
    },
    "longitude": -80.48083629999999,
    "latitude": 43.4252697,
    "types": [
      "car_dealer",
      "store",
      "point_of_interest",
      "establishment"
    ]
  },
  {
    "name": "Gemini Motors",
    "coordinates": {
      "lat": 43.41720180000001,
      "lng": -80.4508257
    },
    "longitude": -80.4508257,
    "latitude": 43.41720180000001,
    "types": [
      "car_dealer",
      "store",
      "point_of_interest",
      "establishment"
    ]
  },
  {
    "name": "M.R. Jutzi Auctions",
    "coordinates": {
      "lat": 43.46022920000001,
      "lng": -80.4020369
    },
    "longitude": -80.4020369,
    "latitude": 43.46022920000001,
    "types": [
      "car_dealer",
      "store",
      "point_of_interest",
      "establishment"
    ]
  },
  {
    "name": "autologix",
    "coordinates": {
      "lat": 43.4587828,
      "lng": -80.48325919999999
    },
    "longitude": -80.48325919999999,
    "latitude": 43.4587828,
    "types": [
      "car_repair",
      "car_dealer",
      "store",
      "point_of_interest",
      "establishment"
    ]
  },
  {
    "name": "SAISAN MOTORS KITCHENER",
    "coordinates": {
      "lat": 43.4324676,
      "lng": -80.47773719999999
    },
    "longitude": -80.47773719999999,
    "latitude": 43.4324676,
    "types": [
      "car_dealer",
      "store",
      "point_of_interest",
      "establishment"
    ]
  },
  {
    "name": "Xtreme Motors Ltd",
    "coordinates": {
      "lat": 43.45789329999999,
      "lng": -80.4962997
    },
    "longitude": -80.4962997,
    "latitude": 43.45789329999999,
    "types": [
      "car_dealer",
      "store",
      "point_of_interest",
      "establishment"
    ]
  },
  {
    "name": "Frank Gies Auto Sales & Leasing",
    "coordinates": {
      "lat": 43.476914,
      "lng": -80.5236195
    },
    "longitude": -80.5236195,
    "latitude": 43.476914,
    "types": [
      "car_dealer",
      "store",
      "point_of_interest",
      "establishment"
    ]
  },
  {
    "name": "Nick's Auto Sales",
    "coordinates": {
      "lat": 43.45813769999999,
      "lng": -80.4964146
    },
    "longitude": -80.4964146,
    "latitude": 43.45813769999999,
    "types": [
      "car_dealer",
      "store",
      "point_of_interest",
      "establishment"
    ]
  },
  {
    "name": "Gascho Automotive Limited",
    "coordinates": {
      "lat": 43.47016889999999,
      "lng": -80.4823136
    },
    "longitude": -80.4823136,
    "latitude": 43.47016889999999,
    "types": [
      "car_repair",
      "car_dealer",
      "store",
      "point_of_interest",
      "establishment"
    ]
  },
  {
    "name": "Auto Alban",
    "coordinates": {
      "lat": 43.4646841,
      "lng": -80.5219078
    },
    "longitude": -80.5219078,
    "latitude": 43.4646841,
    "types": [
      "car_dealer",
      "store",
      "point_of_interest",
      "establishment"
    ]
  }
]