[
  {
    "name": "Domino's Pizza",
    "coordinates": {
      "lat": 43.46752929999999,
      "lng": -80.5684411
    },
    "longitude": -80.5684411,
    "latitude": 43.46752929999999,
    "types": [
      "meal_delivery",
      "meal_takeaway",
      "restaurant",
      "food",
      "point_of_interest",
      "establishment"
    ]
  },
  {
    "name": "Sushi 99",
    "coordinates": {
      "lat": 43.503758,
      "lng": -80.530821
    },
    "longitude": -80.530821,
    "latitude": 43.503758,
    "types": [
      "meal_delivery",
      "restaurant",
      "food",
      "point_of_interest",
      "establishment"
    ]
  },
  {
    "name": "University Garden Chinese Cuisine",
    "coordinates": {
      "lat": 43.4888585,
      "lng": -80.4919948
    },
    "longitude": -80.4919948,
    "latitude": 43.4888585,
    "types": [
      "meal_delivery",
      "meal_takeaway",
      "restaurant",
      "food",
      "point_of_interest",
      "establishment"
    ]
  },
  {
    "name": "Pizza Pizza",
    "coordinates": {
      "lat": 43.48640809999999,
      "lng": -80.54069969999999
    },
    "longitude": -80.54069969999999,
    "latitude": 43.48640809999999,
    "types": [
      "meal_delivery",
      "meal_takeaway",
      "restaurant",
      "food",
      "point_of_interest",
      "establishment"
    ]
  },
  {
    "name": "Campus Pizza",
    "coordinates": {
      "lat": 43.4721532,
      "lng": -80.5380266
    },
    "longitude": -80.5380266,
    "latitude": 43.4721532,
    "types": [
      "meal_delivery",
      "meal_takeaway",
      "restaurant",
      "food",
      "point_of_interest",
      "establishment"
    ]
  },
  {
    "name": "Classic Indian",
    "coordinates": {
      "lat": 43.50509659999999,
      "lng": -80.5379851
    },
    "longitude": -80.5379851,
    "latitude": 43.50509659999999,
    "types": [
      "meal_delivery",
      "meal_takeaway",
      "restaurant",
      "food",
      "point_of_interest",
      "establishment"
    ]
  },
  {
    "name": "Pizza pizza",
    "coordinates": {
      "lat": 43.450881,
      "lng": -80.492495
    },
    "longitude": -80.492495,
    "latitude": 43.450881,
    "types": [
      "meal_delivery",
      "meal_takeaway",
      "restaurant",
      "food",
      "point_of_interest",
      "establishment"
    ]
  },
  {
    "name": "Twice The Deal Pizza",
    "coordinates": {
      "lat": 43.4844996,
      "lng": -80.5263456
    },
    "longitude": -80.5263456,
    "latitude": 43.4844996,
    "types": [
      "meal_delivery",
      "meal_takeaway",
      "restaurant",
      "food",
      "point_of_interest",
      "establishment"
    ]
  },
  {
    "name": "Double Deal Pizza & Wings",
    "coordinates": {
      "lat": 43.43991459999999,
      "lng": -80.5267381
    },
    "longitude": -80.5267381,
    "latitude": 43.43991459999999,
    "types": [
      "meal_delivery",
      "meal_takeaway",
      "restaurant",
      "food",
      "point_of_interest",
      "establishment"
    ]
  },
  {
    "name": "Pizzaville",
    "coordinates": {
      "lat": 43.4248838,
      "lng": -80.55417159999999
    },
    "longitude": -80.55417159999999,
    "latitude": 43.4248838,
    "types": [
      "meal_delivery",
      "meal_takeaway",
      "restaurant",
      "food",
      "point_of_interest",
      "establishment"
    ]
  },
  {
    "name": "WingsUp! Waterloo",
    "coordinates": {
      "lat": 43.4766499,
      "lng": -80.5209852
    },
    "longitude": -80.5209852,
    "latitude": 43.4766499,
    "types": [
      "meal_delivery",
      "meal_takeaway",
      "restaurant",
      "food",
      "point_of_interest",
      "establishment"
    ]
  },
  {
    "name": "KFC",
    "coordinates": {
      "lat": 43.4969302,
      "lng": -80.5263955
    },
    "longitude": -80.5263955,
    "latitude": 43.4969302,
    "types": [
      "meal_delivery",
      "meal_takeaway",
      "restaurant",
      "food",
      "point_of_interest",
      "establishment"
    ]
  },
  {
    "name": "Famoso Italian Pizzeria - Waterloo",
    "coordinates": {
      "lat": 43.4643793,
      "lng": -80.5223374
    },
    "longitude": -80.5223374,
    "latitude": 43.4643793,
    "types": [
      "meal_delivery",
      "meal_takeaway",
      "restaurant",
      "food",
      "point_of_interest",
      "establishment"
    ]
  },
  {
    "name": "Domino's Pizza",
    "coordinates": {
      "lat": 43.476829,
      "lng": -80.5208554
    },
    "longitude": -80.5208554,
    "latitude": 43.476829,
    "types": [
      "meal_delivery",
      "meal_takeaway",
      "restaurant",
      "food",
      "point_of_interest",
      "establishment"
    ]
  },
  {
    "name": "The Cactus Mexican Restaurant",
    "coordinates": {
      "lat": 43.48458129999999,
      "lng": -80.5408135
    },
    "longitude": -80.5408135,
    "latitude": 43.48458129999999,
    "types": [
      "meal_delivery",
      "meal_takeaway",
      "restaurant",
      "food",
      "point_of_interest",
      "establishment"
    ]
  },
  {
    "name": "Domino's Pizza",
    "coordinates": {
      "lat": 43.44093830000001,
      "lng": -80.5057545
    },
    "longitude": -80.5057545,
    "latitude": 43.44093830000001,
    "types": [
      "meal_delivery",
      "meal_takeaway",
      "restaurant",
      "food",
      "point_of_interest",
      "establishment"
    ]
  },
  {
    "name": "Chopped Leaf",
    "coordinates": {
      "lat": 43.5035979,
      "lng": -80.53117999999999
    },
    "longitude": -80.53117999999999,
    "latitude": 43.5035979,
    "types": [
      "meal_delivery",
      "restaurant",
      "food",
      "point_of_interest",
      "establishment"
    ]
  },
  {
    "name": "Little Caesars Pizza",
    "coordinates": {
      "lat": 43.43547179999999,
      "lng": -80.56090160000001
    },
    "longitude": -80.56090160000001,
    "latitude": 43.43547179999999,
    "types": [
      "meal_delivery",
      "meal_takeaway",
      "restaurant",
      "food",
      "point_of_interest",
      "establishment"
    ]
  },
  {
    "name": "Panago Pizza",
    "coordinates": {
      "lat": 43.4461988,
      "lng": -80.5748334
    },
    "longitude": -80.5748334,
    "latitude": 43.4461988,
    "types": [
      "meal_delivery",
      "meal_takeaway",
      "restaurant",
      "food",
      "point_of_interest",
      "establishment"
    ]
  },
  {
    "name": "KFC",
    "coordinates": {
      "lat": 43.4243176,
      "lng": -80.438563
    },
    "longitude": -80.438563,
    "latitude": 43.4243176,
    "types": [
      "meal_delivery",
      "restaurant",
      "food",
      "point_of_interest",
      "establishment"
    ]
  },
  {
    "name": "City Pizza",
    "coordinates": {
      "lat": 43.4071901,
      "lng": -80.5002241
    },
    "longitude": -80.5002241,
    "latitude": 43.4071901,
    "types": [
      "meal_delivery",
      "meal_takeaway",
      "restaurant",
      "point_of_interest",
      "food",
      "establishment"
    ]
  },
  {
    "name": "Tito's Pizza",
    "coordinates": {
      "lat": 43.4137081,
      "lng": -80.47206419999999
    },
    "longitude": -80.47206419999999,
    "latitude": 43.4137081,
    "types": [
      "meal_delivery",
      "meal_takeaway",
      "restaurant",
      "point_of_interest",
      "food",
      "establishment"
    ]
  },
  {
    "name": "Domino's Pizza",
    "coordinates": {
      "lat": 43.43301009999999,
      "lng": -80.4452312
    },
    "longitude": -80.4452312,
    "latitude": 43.43301009999999,
    "types": [
      "meal_delivery",
      "meal_takeaway",
      "restaurant",
      "point_of_interest",
      "food",
      "establishment"
    ]
  },
  {
    "name": "Verona Pizza & Grill - Kitchener",
    "coordinates": {
      "lat": 43.40276499999999,
      "lng": -80.4975372
    },
    "longitude": -80.4975372,
    "latitude": 43.40276499999999,
    "types": [
      "meal_delivery",
      "restaurant",
      "point_of_interest",
      "food",
      "establishment"
    ]
  },
  {
    "name": "Topper's Pizza - Kitchener",
    "coordinates": {
      "lat": 43.4386971,
      "lng": -80.5101951
    },
    "longitude": -80.5101951,
    "latitude": 43.4386971,
    "types": [
      "meal_delivery",
      "meal_takeaway",
      "restaurant",
      "point_of_interest",
      "food",
      "establishment"
    ]
  },
  {
    "name": "Domino's Pizza",
    "coordinates": {
      "lat": 43.40547029999999,
      "lng": -80.4980288
    },
    "longitude": -80.4980288,
    "latitude": 43.40547029999999,
    "types": [
      "meal_delivery",
      "meal_takeaway",
      "restaurant",
      "point_of_interest",
      "food",
      "establishment"
    ]
  },
  {
    "name": "Pizza Pizza",
    "coordinates": {
      "lat": 43.429735,
      "lng": -80.52513499999999
    },
    "longitude": -80.52513499999999,
    "latitude": 43.429735,
    "types": [
      "meal_delivery",
      "meal_takeaway",
      "restaurant",
      "point_of_interest",
      "food",
      "establishment"
    ]
  },
  {
    "name": "Little Caesars Pizza",
    "coordinates": {
      "lat": 43.49554000000001,
      "lng": -80.50144
    },
    "longitude": -80.50144,
    "latitude": 43.49554000000001,
    "types": [
      "meal_delivery",
      "meal_takeaway",
      "restaurant",
      "point_of_interest",
      "food",
      "establishment"
    ]
  },
  {
    "name": "Pizza Pizza",
    "coordinates": {
      "lat": 43.453371,
      "lng": -80.555824
    },
    "longitude": -80.555824,
    "latitude": 43.453371,
    "types": [
      "meal_delivery",
      "meal_takeaway",
      "restaurant",
      "point_of_interest",
      "food",
      "establishment"
    ]
  },
  {
    "name": "New Orleans Pizza",
    "coordinates": {
      "lat": 43.4887212,
      "lng": -80.49207129999999
    },
    "longitude": -80.49207129999999,
    "latitude": 43.4887212,
    "types": [
      "meal_delivery",
      "meal_takeaway",
      "restaurant",
      "point_of_interest",
      "food",
      "establishment"
    ]
  },
  {
    "name": "Pizza Pizza",
    "coordinates": {
      "lat": 43.4522316,
      "lng": -80.444167
    },
    "longitude": -80.444167,
    "latitude": 43.4522316,
    "types": [
      "meal_delivery",
      "meal_takeaway",
      "restaurant",
      "point_of_interest",
      "food",
      "establishment"
    ]
  },
  {
    "name": "Pizza Nova",
    "coordinates": {
      "lat": 43.472379,
      "lng": -80.536169
    },
    "longitude": -80.536169,
    "latitude": 43.472379,
    "types": [
      "meal_delivery",
      "meal_takeaway",
      "restaurant",
      "point_of_interest",
      "food",
      "establishment"
    ]
  },
  {
    "name": "WingsUp! Kitchener - Kingsway",
    "coordinates": {
      "lat": 43.433027,
      "lng": -80.4483855
    },
    "longitude": -80.4483855,
    "latitude": 43.433027,
    "types": [
      "meal_delivery",
      "meal_takeaway",
      "restaurant",
      "point_of_interest",
      "food",
      "establishment"
    ]
  },
  {
    "name": "Twin City Pizza",
    "coordinates": {
      "lat": 43.484588,
      "lng": -80.550664
    },
    "longitude": -80.550664,
    "latitude": 43.484588,
    "types": [
      "meal_delivery",
      "meal_takeaway",
      "restaurant",
      "point_of_interest",
      "food",
      "establishment"
    ]
  },
  {
    "name": "Metro Restaurant",
    "coordinates": {
      "lat": 43.45595949999999,
      "lng": -80.4911724
    },
    "longitude": -80.4911724,
    "latitude": 43.45595949999999,
    "types": [
      "meal_delivery",
      "meal_takeaway",
      "restaurant",
      "point_of_interest",
      "food",
      "establishment"
    ]
  },
  {
    "name": "Little Caesars Pizza",
    "coordinates": {
      "lat": 43.48468159999999,
      "lng": -80.54112150000002
    },
    "longitude": -80.54112150000002,
    "latitude": 43.48468159999999,
    "types": [
      "meal_delivery",
      "meal_takeaway",
      "restaurant",
      "point_of_interest",
      "food",
      "establishment"
    ]
  },
  {
    "name": "KFC",
    "coordinates": {
      "lat": 43.4297492,
      "lng": -80.52513189999999
    },
    "longitude": -80.52513189999999,
    "latitude": 43.4297492,
    "types": [
      "meal_delivery",
      "restaurant",
      "point_of_interest",
      "food",
      "establishment"
    ]
  },
  {
    "name": "Little Caesars Pizza",
    "coordinates": {
      "lat": 43.4611053,
      "lng": -80.4403542
    },
    "longitude": -80.4403542,
    "latitude": 43.4611053,
    "types": [
      "meal_delivery",
      "meal_takeaway",
      "restaurant",
      "point_of_interest",
      "food",
      "establishment"
    ]
  },
  {
    "name": "Little Caesars Pizza",
    "coordinates": {
      "lat": 43.4344321,
      "lng": -80.51544419999999
    },
    "longitude": -80.51544419999999,
    "latitude": 43.4344321,
    "types": [
      "meal_delivery",
      "meal_takeaway",
      "restaurant",
      "point_of_interest",
      "food",
      "establishment"
    ]
  },
  {
    "name": "KFC",
    "coordinates": {
      "lat": 43.4837661,
      "lng": -80.5251134
    },
    "longitude": -80.5251134,
    "latitude": 43.4837661,
    "types": [
      "meal_delivery",
      "restaurant",
      "point_of_interest",
      "food",
      "establishment"
    ]
  },
  {
    "name": "Mel's Diner",
    "coordinates": {
      "lat": 43.42055,
      "lng": -80.50284169999999
    },
    "longitude": -80.50284169999999,
    "latitude": 43.42055,
    "types": [
      "meal_delivery",
      "meal_takeaway",
      "restaurant",
      "point_of_interest",
      "food",
      "store",
      "establishment"
    ]
  },
  {
    "name": "Pizza Nova",
    "coordinates": {
      "lat": 43.4151464,
      "lng": -80.5141603
    },
    "longitude": -80.5141603,
    "latitude": 43.4151464,
    "types": [
      "meal_delivery",
      "meal_takeaway",
      "restaurant",
      "point_of_interest",
      "food",
      "establishment"
    ]
  },
  {
    "name": "Lisboa Bakery & Grill",
    "coordinates": {
      "lat": 43.4056416,
      "lng": -80.5021629
    },
    "longitude": -80.5021629,
    "latitude": 43.4056416,
    "types": [
      "meal_delivery",
      "cafe",
      "bakery",
      "restaurant",
      "point_of_interest",
      "food",
      "store",
      "establishment"
    ]
  },
  {
    "name": "Little Caesars Pizza",
    "coordinates": {
      "lat": 43.4110378,
      "lng": -80.4600681
    },
    "longitude": -80.4600681,
    "latitude": 43.4110378,
    "types": [
      "meal_delivery",
      "meal_takeaway",
      "restaurant",
      "point_of_interest",
      "food",
      "establishment"
    ]
  },
  {
    "name": "KFC",
    "coordinates": {
      "lat": 43.4105609,
      "lng": -80.46111839999999
    },
    "longitude": -80.46111839999999,
    "latitude": 43.4105609,
    "types": [
      "meal_delivery",
      "restaurant",
      "point_of_interest",
      "food",
      "establishment"
    ]
  },
  {
    "name": "Shell",
    "coordinates": {
      "lat": 43.4773658,
      "lng": -80.5396552
    },
    "longitude": -80.5396552,
    "latitude": 43.4773658,
    "types": [
      "gas_station",
      "convenience_store",
      "meal_delivery",
      "car_wash",
      "point_of_interest",
      "food",
      "store",
      "establishment"
    ]
  },
  {
    "name": "Shell",
    "coordinates": {
      "lat": 43.4761298,
      "lng": -80.4841208
    },
    "longitude": -80.4841208,
    "latitude": 43.4761298,
    "types": [
      "gas_station",
      "convenience_store",
      "meal_delivery",
      "liquor_store",
      "point_of_interest",
      "food",
      "store",
      "establishment"
    ]
  },
  {
    "name": "Domino's Pizza",
    "coordinates": {
      "lat": 43.5042342,
      "lng": -80.50907049999999
    },
    "longitude": -80.50907049999999,
    "latitude": 43.5042342,
    "types": [
      "meal_delivery",
      "meal_takeaway",
      "restaurant",
      "point_of_interest",
      "food",
      "establishment"
    ]
  },
  {
    "name": "City Pizza",
    "coordinates": {
      "lat": 43.4329976,
      "lng": -80.4387663
    },
    "longitude": -80.4387663,
    "latitude": 43.4329976,
    "types": [
      "meal_delivery",
      "restaurant",
      "point_of_interest",
      "food",
      "establishment"
    ]
  },
  {
    "name": "Rocky Mountain Chocolate",
    "coordinates": {
      "lat": 43.4974006,
      "lng": -80.52716989999999
    },
    "longitude": -80.52716989999999,
    "latitude": 43.4974006,
    "types": [
      "meal_delivery",
      "point_of_interest",
      "food",
      "store",
      "establishment"
    ]
  },
  {
    "name": "Pizza Depot Waterloo (University Avenue)",
    "coordinates": {
      "lat": 43.4724308,
      "lng": -80.5345427
    },
    "longitude": -80.5345427,
    "latitude": 43.4724308,
    "types": [
      "meal_delivery",
      "meal_takeaway",
      "restaurant",
      "point_of_interest",
      "food",
      "establishment"
    ]
  },
  {
    "name": "241 Pizza",
    "coordinates": {
      "lat": 43.4771246,
      "lng": -80.5248312
    },
    "longitude": -80.5248312,
    "latitude": 43.4771246,
    "types": [
      "meal_delivery",
      "restaurant",
      "point_of_interest",
      "food",
      "establishment"
    ]
  },
  {
    "name": "Toma's Pizza",
    "coordinates": {
      "lat": 43.4751434,
      "lng": -80.53158289999999
    },
    "longitude": -80.53158289999999,
    "latitude": 43.4751434,
    "types": [
      "meal_delivery",
      "meal_takeaway",
      "restaurant",
      "point_of_interest",
      "food",
      "establishment"
    ]
  },
  {
    "name": "Shell",
    "coordinates": {
      "lat": 43.4629888,
      "lng": -80.5390146
    },
    "longitude": -80.5390146,
    "latitude": 43.4629888,
    "types": [
      "gas_station",
      "convenience_store",
      "meal_delivery",
      "point_of_interest",
      "food",
      "store",
      "establishment"
    ]
  },
  {
    "name": "Chatore Nation",
    "coordinates": {
      "lat": 43.4779194,
      "lng": -80.5238543
    },
    "longitude": -80.5238543,
    "latitude": 43.4779194,
    "types": [
      "meal_delivery",
      "point_of_interest",
      "food",
      "establishment"
    ]
  },
  {
    "name": "Chef On Call",
    "coordinates": {
      "lat": 43.47811499999999,
      "lng": -80.537481
    },
    "longitude": -80.537481,
    "latitude": 43.47811499999999,
    "types": [
      "meal_delivery",
      "meal_takeaway",
      "restaurant",
      "point_of_interest",
      "food",
      "establishment"
    ]
  },
  {
    "name": "Mera Shawarma",
    "coordinates": {
      "lat": 43.4455501,
      "lng": -80.5136132
    },
    "longitude": -80.5136132,
    "latitude": 43.4455501,
    "types": [
      "meal_delivery",
      "restaurant",
      "point_of_interest",
      "food",
      "establishment"
    ]
  },
  {
    "name": "Wingzza Junction",
    "coordinates": {
      "lat": 43.45792309999999,
      "lng": -80.4946179
    },
    "longitude": -80.4946179,
    "latitude": 43.45792309999999,
    "types": [
      "meal_delivery",
      "meal_takeaway",
      "restaurant",
      "point_of_interest",
      "food",
      "establishment"
    ]
  },
  {
    "name": "Lakelands Diet Delivery",
    "coordinates": {
      "lat": 43.4842553,
      "lng": -80.5254971
    },
    "longitude": -80.5254971,
    "latitude": 43.4842553,
    "types": [
      "meal_delivery",
      "point_of_interest",
      "food",
      "establishment"
    ]
  },
  {
    "name": "Pizza Express (Highview/Ira Needles)",
    "coordinates": {
      "lat": 43.4145812,
      "lng": -80.5520449
    },
    "longitude": -80.5520449,
    "latitude": 43.4145812,
    "types": [
      "meal_delivery",
      "meal_takeaway",
      "restaurant",
      "point_of_interest",
      "food",
      "establishment"
    ]
  }
]