[
  {
    "name": "Koenig Painting And Decorating",
    "coordinates": {
      "lat": 43.4661432,
      "lng": -80.5728565
    },
    "longitude": -80.5728565,
    "latitude": 43.4661432,
    "types": [
      "painter",
      "general_contractor",
      "point_of_interest",
      "establishment"
    ]
  },
  {
    "name": "Kitchener Waterloo Painters",
    "coordinates": {
      "lat": 43.494064,
      "lng": -80.5231021
    },
    "longitude": -80.5231021,
    "latitude": 43.494064,
    "types": [
      "painter",
      "point_of_interest",
      "establishment"
    ]
  },
  {
    "name": "Empire Community Painting",
    "coordinates": {
      "lat": 43.4344314,
      "lng": -80.5154312
    },
    "longitude": -80.5154312,
    "latitude": 43.4344314,
    "types": [
      "painter",
      "point_of_interest",
      "establishment"
    ]
  },
  {
    "name": "Pro Image Painting",
    "coordinates": {
      "lat": 43.4602918,
      "lng": -80.5892728
    },
    "longitude": -80.5892728,
    "latitude": 43.4602918,
    "types": [
      "painter",
      "point_of_interest",
      "establishment"
    ]
  },
  {
    "name": "Innovative Painting & Decorating",
    "coordinates": {
      "lat": 43.4326799,
      "lng": -80.4806618
    },
    "longitude": -80.4806618,
    "latitude": 43.4326799,
    "types": [
      "painter",
      "point_of_interest",
      "establishment"
    ]
  },
  {
    "name": "Bluebird Painting Inc.",
    "coordinates": {
      "lat": 43.4661038,
      "lng": -80.5728227
    },
    "longitude": -80.5728227,
    "latitude": 43.4661038,
    "types": [
      "painter",
      "point_of_interest",
      "establishment"
    ]
  },
  {
    "name": "Premium Custom Painters",
    "coordinates": {
      "lat": 43.4620208,
      "lng": -80.468554
    },
    "longitude": -80.468554,
    "latitude": 43.4620208,
    "types": [
      "painter",
      "point_of_interest",
      "establishment"
    ]
  },
  {
    "name": "Dale Arts",
    "coordinates": {
      "lat": 43.4585275,
      "lng": -80.5214013
    },
    "longitude": -80.5214013,
    "latitude": 43.4585275,
    "types": [
      "painter",
      "point_of_interest",
      "establishment"
    ]
  },
  {
    "name": "Whimsical Furnishings",
    "coordinates": {
      "lat": 43.4507745,
      "lng": -80.49199
    },
    "longitude": -80.49199,
    "latitude": 43.4507745,
    "types": [
      "furniture_store",
      "painter",
      "home_goods_store",
      "store",
      "point_of_interest",
      "establishment"
    ]
  },
  {
    "name": "Alan Jones Painting",
    "coordinates": {
      "lat": 43.4456624,
      "lng": -80.4872156
    },
    "longitude": -80.4872156,
    "latitude": 43.4456624,
    "types": [
      "painter",
      "point_of_interest",
      "establishment"
    ]
  },
  {
    "name": "METICULOUS Painting & Design",
    "coordinates": {
      "lat": 43.44581720000001,
      "lng": -80.4862199
    },
    "longitude": -80.4862199,
    "latitude": 43.44581720000001,
    "types": [
      "painter",
      "point_of_interest",
      "establishment"
    ]
  },
  {
    "name": "Living Colours Painting",
    "coordinates": {
      "lat": 43.4600618,
      "lng": -80.4352784
    },
    "longitude": -80.4352784,
    "latitude": 43.4600618,
    "types": [
      "painter",
      "point_of_interest",
      "establishment"
    ]
  },
  {
    "name": "Expert Painting",
    "coordinates": {
      "lat": 43.47930299999999,
      "lng": -80.459648
    },
    "longitude": -80.459648,
    "latitude": 43.47930299999999,
    "types": [
      "painter",
      "point_of_interest",
      "establishment"
    ]
  },
  {
    "name": "The Perfect Space - Intelligent Interior Solutions",
    "coordinates": {
      "lat": 43.4302376,
      "lng": -80.44996750000001
    },
    "longitude": -80.44996750000001,
    "latitude": 43.4302376,
    "types": [
      "painter",
      "point_of_interest",
      "establishment"
    ]
  },
  {
    "name": "Priority Painting & Decorators",
    "coordinates": {
      "lat": 43.4255267,
      "lng": -80.4440868
    },
    "longitude": -80.4440868,
    "latitude": 43.4255267,
    "types": [
      "painter",
      "point_of_interest",
      "establishment"
    ]
  },
  {
    "name": "Precise Painters INC",
    "coordinates": {
      "lat": 43.41981229999999,
      "lng": -80.4409098
    },
    "longitude": -80.4409098,
    "latitude": 43.41981229999999,
    "types": [
      "painter",
      "point_of_interest",
      "establishment"
    ]
  },
  {
    "name": "Brody Enterprises Inc.",
    "coordinates": {
      "lat": 43.540107,
      "lng": -80.50817959999999
    },
    "longitude": -80.50817959999999,
    "latitude": 43.540107,
    "types": [
      "painter",
      "point_of_interest",
      "establishment"
    ]
  },
  {
    "name": "Riley Painting Corporation.",
    "coordinates": {
      "lat": 43.540101,
      "lng": -80.5081189
    },
    "longitude": -80.5081189,
    "latitude": 43.540101,
    "types": [
      "painter",
      "home_goods_store",
      "store",
      "point_of_interest",
      "establishment"
    ]
  },
  {
    "name": "Byng Group Of Companies",
    "coordinates": {
      "lat": 43.4365942,
      "lng": -80.4840956
    },
    "longitude": -80.4840956,
    "latitude": 43.4365942,
    "types": [
      "painter",
      "point_of_interest",
      "establishment"
    ]
  },
  {
    "name": "CertaPro Painters of Waterloo Region & Guelph",
    "coordinates": {
      "lat": 43.493567,
      "lng": -80.5428891
    },
    "longitude": -80.5428891,
    "latitude": 43.493567,
    "types": [
      "painter",
      "point_of_interest",
      "establishment"
    ]
  },
  {
    "name": "Kitchen Cabinet Painting Waterloo",
    "coordinates": {
      "lat": 43.4700525,
      "lng": -80.5140416
    },
    "longitude": -80.5140416,
    "latitude": 43.4700525,
    "types": [
      "painter",
      "point_of_interest",
      "establishment"
    ]
  },
  {
    "name": "Tac Painting",
    "coordinates": {
      "lat": 43.4623711,
      "lng": -80.50045039999999
    },
    "longitude": -80.50045039999999,
    "latitude": 43.4623711,
    "types": [
      "painter",
      "point_of_interest",
      "establishment"
    ]
  },
  {
    "name": "A Painted Thing",
    "coordinates": {
      "lat": 43.48056179999999,
      "lng": -80.5248958
    },
    "longitude": -80.5248958,
    "latitude": 43.48056179999999,
    "types": [
      "painter",
      "point_of_interest",
      "establishment"
    ]
  },
  {
    "name": "Heer's Decorating & Design Ctr",
    "coordinates": {
      "lat": 43.44521789999999,
      "lng": -80.519014
    },
    "longitude": -80.519014,
    "latitude": 43.44521789999999,
    "types": [
      "painter",
      "point_of_interest",
      "establishment"
    ]
  },
  {
    "name": "Lukas Painting and Renovation",
    "coordinates": {
      "lat": 43.44557229999999,
      "lng": -80.5136658
    },
    "longitude": -80.5136658,
    "latitude": 43.44557229999999,
    "types": [
      "painter",
      "point_of_interest",
      "establishment"
    ]
  },
  {
    "name": "Sunbeam Painting",
    "coordinates": {
      "lat": 43.4451847,
      "lng": -80.5140468
    },
    "longitude": -80.5140468,
    "latitude": 43.4451847,
    "types": [
      "painter",
      "point_of_interest",
      "establishment"
    ]
  },
  {
    "name": "McHugh Painting",
    "coordinates": {
      "lat": 43.4840752,
      "lng": -80.5255106
    },
    "longitude": -80.5255106,
    "latitude": 43.4840752,
    "types": [
      "painter",
      "point_of_interest",
      "establishment"
    ]
  },
  {
    "name": "Best Value Painting",
    "coordinates": {
      "lat": 43.4484102,
      "lng": -80.5029005
    },
    "longitude": -80.5029005,
    "latitude": 43.4484102,
    "types": [
      "painter",
      "general_contractor",
      "point_of_interest",
      "establishment"
    ]
  },
  {
    "name": "Tri City Painters",
    "coordinates": {
      "lat": 43.44380960000001,
      "lng": -80.5092662
    },
    "longitude": -80.5092662,
    "latitude": 43.44380960000001,
    "types": [
      "painter",
      "point_of_interest",
      "establishment"
    ]
  },
  {
    "name": "Paint Foundation Painters",
    "coordinates": {
      "lat": 43.46193960000001,
      "lng": -80.490133
    },
    "longitude": -80.490133,
    "latitude": 43.46193960000001,
    "types": [
      "painter",
      "general_contractor",
      "store",
      "point_of_interest",
      "establishment"
    ]
  },
  {
    "name": "HAS Painting Co. Inc",
    "coordinates": {
      "lat": 43.4530432,
      "lng": -80.4925935
    },
    "longitude": -80.4925935,
    "latitude": 43.4530432,
    "types": [
      "painter",
      "point_of_interest",
      "establishment"
    ]
  },
  {
    "name": "Stephenson Ross Painting",
    "coordinates": {
      "lat": 43.44044,
      "lng": -80.5152499
    },
    "longitude": -80.5152499,
    "latitude": 43.44044,
    "types": [
      "painter",
      "point_of_interest",
      "establishment"
    ]
  },
  {
    "name": "Kitchen Cabinet Painting Kitchener",
    "coordinates": {
      "lat": 43.43862499999999,
      "lng": -80.5118911
    },
    "longitude": -80.5118911,
    "latitude": 43.43862499999999,
    "types": [
      "painter",
      "point_of_interest",
      "establishment"
    ]
  },
  {
    "name": "Pigmentos Decor - Wallpaper Installer",
    "coordinates": {
      "lat": 43.4421251,
      "lng": -80.4970237
    },
    "longitude": -80.4970237,
    "latitude": 43.4421251,
    "types": [
      "painter",
      "point_of_interest",
      "establishment"
    ]
  },
  {
    "name": "Painting By Luis",
    "coordinates": {
      "lat": 43.43515,
      "lng": -80.51351
    },
    "longitude": -80.51351,
    "latitude": 43.43515,
    "types": [
      "painter",
      "point_of_interest",
      "establishment"
    ]
  },
  {
    "name": "VIVID COLOURS PAINTING",
    "coordinates": {
      "lat": 43.4302773,
      "lng": -80.5201648
    },
    "longitude": -80.5201648,
    "latitude": 43.4302773,
    "types": [
      "painter",
      "point_of_interest",
      "establishment"
    ]
  },
  {
    "name": "Rau Painting Services",
    "coordinates": {
      "lat": 43.4874556,
      "lng": -80.4822059
    },
    "longitude": -80.4822059,
    "latitude": 43.4874556,
    "types": [
      "painter",
      "point_of_interest",
      "establishment"
    ]
  },
  {
    "name": "M&M Custom Painting",
    "coordinates": {
      "lat": 43.4472774,
      "lng": -80.4760179
    },
    "longitude": -80.4760179,
    "latitude": 43.4472774,
    "types": [
      "painter",
      "home_goods_store",
      "general_contractor",
      "store",
      "point_of_interest",
      "establishment"
    ]
  },
  {
    "name": "Blueprint Precision Painting",
    "coordinates": {
      "lat": 43.4867418,
      "lng": -80.56179130000001
    },
    "longitude": -80.56179130000001,
    "latitude": 43.4867418,
    "types": [
      "painter",
      "home_goods_store",
      "general_contractor",
      "store",
      "point_of_interest",
      "establishment"
    ]
  },
  {
    "name": "Quali-Coats Painting & Flooring",
    "coordinates": {
      "lat": 43.4945108,
      "lng": -80.551814
    },
    "longitude": -80.551814,
    "latitude": 43.4945108,
    "types": [
      "painter",
      "home_goods_store",
      "general_contractor",
      "store",
      "point_of_interest",
      "establishment"
    ]
  },
  {
    "name": "At Your Svc Painting & Decor",
    "coordinates": {
      "lat": 43.4562979,
      "lng": -80.5755781
    },
    "longitude": -80.5755781,
    "latitude": 43.4562979,
    "types": [
      "painter",
      "point_of_interest",
      "establishment"
    ]
  },
  {
    "name": "Mon't Services Inc",
    "coordinates": {
      "lat": 43.4309854,
      "lng": -80.5535258
    },
    "longitude": -80.5535258,
    "latitude": 43.4309854,
    "types": [
      "painter",
      "point_of_interest",
      "establishment"
    ]
  },
  {
    "name": "A Touch of Color Painting Co.",
    "coordinates": {
      "lat": 43.44290660000001,
      "lng": -80.47189019999999
    },
    "longitude": -80.47189019999999,
    "latitude": 43.44290660000001,
    "types": [
      "painter",
      "point_of_interest",
      "establishment"
    ]
  },
  {
    "name": "David's Precision Painting",
    "coordinates": {
      "lat": 43.50777910000001,
      "lng": -80.5073546
    },
    "longitude": -80.5073546,
    "latitude": 43.50777910000001,
    "types": [
      "painter",
      "point_of_interest",
      "establishment"
    ]
  },
  {
    "name": "Labelle Pro Painters",
    "coordinates": {
      "lat": 43.4486253,
      "lng": -80.4619591
    },
    "longitude": -80.4619591,
    "latitude": 43.4486253,
    "types": [
      "painter",
      "point_of_interest",
      "establishment"
    ]
  },
  {
    "name": "Industrial Painting Ontario",
    "coordinates": {
      "lat": 43.5106488,
      "lng": -80.5311656
    },
    "longitude": -80.5311656,
    "latitude": 43.5106488,
    "types": [
      "painter",
      "point_of_interest",
      "establishment"
    ]
  },
  {
    "name": "Sam Painting",
    "coordinates": {
      "lat": 43.41803569999999,
      "lng": -80.5050061
    },
    "longitude": -80.5050061,
    "latitude": 43.41803569999999,
    "types": [
      "painter",
      "point_of_interest",
      "establishment"
    ]
  },
  {
    "name": "Midas Touch Painters",
    "coordinates": {
      "lat": 43.50981999999999,
      "lng": -80.5421429
    },
    "longitude": -80.5421429,
    "latitude": 43.50981999999999,
    "types": [
      "painter",
      "point_of_interest",
      "establishment"
    ]
  },
  {
    "name": "Daddy's Painting",
    "coordinates": {
      "lat": 43.4328211,
      "lng": -80.4685064
    },
    "longitude": -80.4685064,
    "latitude": 43.4328211,
    "types": [
      "painter",
      "point_of_interest",
      "establishment"
    ]
  },
  {
    "name": "Jessica Harnock Designs - Interior Decorator & Professional Painter",
    "coordinates": {
      "lat": 43.5145172,
      "lng": -80.50014569999999
    },
    "longitude": -80.50014569999999,
    "latitude": 43.5145172,
    "types": [
      "painter",
      "general_contractor",
      "point_of_interest",
      "establishment"
    ]
  },
  {
    "name": "Jerrys Painting And Decorating Inc",
    "coordinates": {
      "lat": 43.4099925,
      "lng": -80.50871409999999
    },
    "longitude": -80.50871409999999,
    "latitude": 43.4099925,
    "types": [
      "painter",
      "point_of_interest",
      "establishment"
    ]
  },
  {
    "name": "Primetime Painting",
    "coordinates": {
      "lat": 43.4139956,
      "lng": -80.55148559999999
    },
    "longitude": -80.55148559999999,
    "latitude": 43.4139956,
    "types": [
      "painter",
      "point_of_interest",
      "establishment"
    ]
  },
  {
    "name": "Roy Painting",
    "coordinates": {
      "lat": 43.40917259999999,
      "lng": -80.5001703
    },
    "longitude": -80.5001703,
    "latitude": 43.40917259999999,
    "types": [
      "painter",
      "point_of_interest",
      "establishment"
    ]
  },
  {
    "name": "Fit Painting",
    "coordinates": {
      "lat": 43.47073530000001,
      "lng": -80.59949379999999
    },
    "longitude": -80.59949379999999,
    "latitude": 43.47073530000001,
    "types": [
      "painter",
      "point_of_interest",
      "establishment"
    ]
  },
  {
    "name": "JJMFG Contracting Inc.",
    "coordinates": {
      "lat": 43.4238513,
      "lng": -80.4630088
    },
    "longitude": -80.4630088,
    "latitude": 43.4238513,
    "types": [
      "painter",
      "point_of_interest",
      "establishment"
    ]
  },
  {
    "name": "Grand River Painting",
    "coordinates": {
      "lat": 43.40625379999999,
      "lng": -80.5232472
    },
    "longitude": -80.5232472,
    "latitude": 43.40625379999999,
    "types": [
      "painter",
      "point_of_interest",
      "establishment"
    ]
  },
  {
    "name": "KW Regional Painting",
    "coordinates": {
      "lat": 43.46085230000001,
      "lng": -80.4372149
    },
    "longitude": -80.4372149,
    "latitude": 43.46085230000001,
    "types": [
      "painter",
      "point_of_interest",
      "establishment"
    ]
  },
  {
    "name": "Kitchener Painters",
    "coordinates": {
      "lat": 43.46085649999999,
      "lng": -80.4371939
    },
    "longitude": -80.4371939,
    "latitude": 43.46085649999999,
    "types": [
      "painter",
      "point_of_interest",
      "establishment"
    ]
  },
  {
    "name": "De-Meer Cool Painting",
    "coordinates": {
      "lat": 43.4547883,
      "lng": -80.4367209
    },
    "longitude": -80.4367209,
    "latitude": 43.4547883,
    "types": [
      "painter",
      "general_contractor",
      "point_of_interest",
      "establishment"
    ]
  },
  {
    "name": "McCARTHY PAINTING",
    "coordinates": {
      "lat": 43.43093169999999,
      "lng": -80.4451036
    },
    "longitude": -80.4451036,
    "latitude": 43.43093169999999,
    "types": [
      "painter",
      "point_of_interest",
      "establishment"
    ]
  }
]