[
  {
    "name": "Waterloo Sports Medicine Centre",
    "coordinates": {
      "lat": 43.4765877,
      "lng": -80.52088239999999
    },
    "longitude": -80.52088239999999,
    "latitude": 43.4765877,
    "types": [
      "physiotherapist",
      "health",
      "point_of_interest",
      "establishment"
    ]
  },
  {
    "name": "Kinetics Medical and Rehabilitation Clinic Inc.",
    "coordinates": {
      "lat": 43.46246379999999,
      "lng": -80.4696395
    },
    "longitude": -80.4696395,
    "latitude": 43.46246379999999,
    "types": [
      "physiotherapist",
      "health",
      "point_of_interest",
      "establishment"
    ]
  },
  {
    "name": "Campus Physio",
    "coordinates": {
      "lat": 43.4715404,
      "lng": -80.5454792
    },
    "longitude": -80.5454792,
    "latitude": 43.4715404,
    "types": [
      "physiotherapist",
      "health",
      "point_of_interest",
      "establishment"
    ]
  },
  {
    "name": "Advantage Physiotherapy Centre",
    "coordinates": {
      "lat": 43.4449279,
      "lng": -80.5210494
    },
    "longitude": -80.5210494,
    "latitude": 43.4449279,
    "types": [
      "physiotherapist",
      "health",
      "point_of_interest",
      "establishment"
    ]
  },
  {
    "name": "Vibrant Living: Naturopathic and Wellness Centre",
    "coordinates": {
      "lat": 43.4695992,
      "lng": -80.5225593
    },
    "longitude": -80.5225593,
    "latitude": 43.4695992,
    "types": [
      "physiotherapist",
      "health",
      "point_of_interest",
      "establishment"
    ]
  },
  {
    "name": "Kevin Kelly Physiotherapy",
    "coordinates": {
      "lat": 43.45140629999999,
      "lng": -80.4712445
    },
    "longitude": -80.4712445,
    "latitude": 43.45140629999999,
    "types": [
      "physiotherapist",
      "health",
      "point_of_interest",
      "establishment"
    ]
  },
  {
    "name": "Higher, Faster, Stronger",
    "coordinates": {
      "lat": 43.4706693,
      "lng": -80.59297839999999
    },
    "longitude": -80.59297839999999,
    "latitude": 43.4706693,
    "types": [
      "physiotherapist",
      "health",
      "point_of_interest",
      "establishment"
    ]
  },
  {
    "name": "Metriks Education Inc",
    "coordinates": {
      "lat": 43.46450730000001,
      "lng": -80.5217991
    },
    "longitude": -80.5217991,
    "latitude": 43.46450730000001,
    "types": [
      "physiotherapist",
      "health",
      "point_of_interest",
      "establishment"
    ]
  },
  {
    "name": "LiveWell Health and Physiotherapy",
    "coordinates": {
      "lat": 43.4177723,
      "lng": -80.5361185
    },
    "longitude": -80.5361185,
    "latitude": 43.4177723,
    "types": [
      "physiotherapist",
      "health",
      "point_of_interest",
      "establishment"
    ]
  },
  {
    "name": "Goss Chiropractic",
    "coordinates": {
      "lat": 43.4379398,
      "lng": -80.5098228
    },
    "longitude": -80.5098228,
    "latitude": 43.4379398,
    "types": [
      "physiotherapist",
      "health",
      "point_of_interest",
      "establishment"
    ]
  },
  {
    "name": "Depth Training & Physiotherapy",
    "coordinates": {
      "lat": 43.4817314,
      "lng": -80.5366789
    },
    "longitude": -80.5366789,
    "latitude": 43.4817314,
    "types": [
      "physiotherapist",
      "gym",
      "health",
      "point_of_interest",
      "establishment"
    ]
  },
  {
    "name": "Belmont Osteopathy Clinic Ltd",
    "coordinates": {
      "lat": 43.453074,
      "lng": -80.5173969
    },
    "longitude": -80.5173969,
    "latitude": 43.453074,
    "types": [
      "physiotherapist",
      "health",
      "point_of_interest",
      "establishment"
    ]
  },
  {
    "name": "Handworx",
    "coordinates": {
      "lat": 43.45609939999999,
      "lng": -80.5056759
    },
    "longitude": -80.5056759,
    "latitude": 43.45609939999999,
    "types": [
      "physiotherapist",
      "doctor",
      "health",
      "point_of_interest",
      "establishment"
    ]
  },
  {
    "name": "MSK Centre",
    "coordinates": {
      "lat": 43.487639,
      "lng": -80.5281175
    },
    "longitude": -80.5281175,
    "latitude": 43.487639,
    "types": [
      "physiotherapist",
      "doctor",
      "health",
      "point_of_interest",
      "establishment"
    ]
  },
  {
    "name": "Walsh Health & Wellness Centre",
    "coordinates": {
      "lat": 43.44073709999999,
      "lng": -80.5136055
    },
    "longitude": -80.5136055,
    "latitude": 43.44073709999999,
    "types": [
      "physiotherapist",
      "health",
      "point_of_interest",
      "establishment"
    ]
  },
  {
    "name": "PhysioMira Physiotherapy",
    "coordinates": {
      "lat": 43.4533908,
      "lng": -80.55191119999999
    },
    "longitude": -80.55191119999999,
    "latitude": 43.4533908,
    "types": [
      "physiotherapist",
      "gym",
      "health",
      "point_of_interest",
      "establishment"
    ]
  },
  {
    "name": "Activa Clinics",
    "coordinates": {
      "lat": 43.4380285,
      "lng": -80.5123359
    },
    "longitude": -80.5123359,
    "latitude": 43.4380285,
    "types": [
      "physiotherapist",
      "health",
      "point_of_interest",
      "establishment"
    ]
  },
  {
    "name": "Delanghe Chiropractic & Health",
    "coordinates": {
      "lat": 43.4943648,
      "lng": -80.53693919999999
    },
    "longitude": -80.53693919999999,
    "latitude": 43.4943648,
    "types": [
      "physiotherapist",
      "health",
      "point_of_interest",
      "establishment"
    ]
  },
  {
    "name": "Healthmedica Kitchener",
    "coordinates": {
      "lat": 43.46316869999999,
      "lng": -80.4661242
    },
    "longitude": -80.4661242,
    "latitude": 43.46316869999999,
    "types": [
      "physiotherapist",
      "health",
      "point_of_interest",
      "establishment"
    ]
  },
  {
    "name": "The Armoury Sports Medicine and Performance Clinic",
    "coordinates": {
      "lat": 43.4364648,
      "lng": -80.5621664
    },
    "longitude": -80.5621664,
    "latitude": 43.4364648,
    "types": [
      "physiotherapist",
      "gym",
      "health",
      "point_of_interest",
      "establishment"
    ]
  },
  {
    "name": "TruHealth & Wellness",
    "coordinates": {
      "lat": 43.5138207,
      "lng": -80.5192703
    },
    "longitude": -80.5192703,
    "latitude": 43.5138207,
    "types": [
      "physiotherapist",
      "health",
      "point_of_interest",
      "establishment"
    ]
  },
  {
    "name": "Physio Treats - Physiotherapy & Sports Injury Cl inic",
    "coordinates": {
      "lat": 43.46089389999999,
      "lng": -80.4409373
    },
    "longitude": -80.4409373,
    "latitude": 43.46089389999999,
    "types": [
      "physiotherapist",
      "health",
      "point_of_interest",
      "establishment"
    ]
  },
  {
    "name": "Sunnyside Wellness Centre",
    "coordinates": {
      "lat": 43.440091,
      "lng": -80.4461211
    },
    "longitude": -80.4461211,
    "latitude": 43.440091,
    "types": [
      "physiotherapist",
      "health",
      "point_of_interest",
      "establishment"
    ]
  },
  {
    "name": "Family Physiotherapy & Sports Rehab Centre",
    "coordinates": {
      "lat": 43.40554269999999,
      "lng": -80.5020275
    },
    "longitude": -80.5020275,
    "latitude": 43.40554269999999,
    "types": [
      "physiotherapist",
      "health",
      "point_of_interest",
      "establishment"
    ]
  },
  {
    "name": "BodyTech Physiotherapy",
    "coordinates": {
      "lat": 43.4288888,
      "lng": -80.4221549
    },
    "longitude": -80.4221549,
    "latitude": 43.4288888,
    "types": [
      "physiotherapist",
      "health",
      "point_of_interest",
      "establishment"
    ]
  },
  {
    "name": "Dmarehability",
    "coordinates": {
      "lat": 43.42836859999999,
      "lng": -80.4219593
    },
    "longitude": -80.4219593,
    "latitude": 43.42836859999999,
    "types": [
      "physiotherapist",
      "health",
      "point_of_interest",
      "establishment"
    ]
  },
  {
    "name": "Kitchener Massage Therapy",
    "coordinates": {
      "lat": 43.4381505,
      "lng": -80.47762279999999
    },
    "longitude": -80.47762279999999,
    "latitude": 43.4381505,
    "types": [
      "physiotherapist",
      "doctor",
      "health",
      "point_of_interest",
      "establishment"
    ]
  },
  {
    "name": "A Body In Motion Rehabilitation/Physiotherapy",
    "coordinates": {
      "lat": 43.4575684,
      "lng": -80.4848798
    },
    "longitude": -80.4848798,
    "latitude": 43.4575684,
    "types": [
      "physiotherapist",
      "health",
      "point_of_interest",
      "establishment"
    ]
  },
  {
    "name": "Sunshine Acupuncture & Wellness Kitchener Waterloo (KW) Clinic",
    "coordinates": {
      "lat": 43.4771605,
      "lng": -80.531015
    },
    "longitude": -80.531015,
    "latitude": 43.4771605,
    "types": [
      "physiotherapist",
      "health",
      "point_of_interest",
      "store",
      "establishment"
    ]
  },
  {
    "name": "Grand River Sports Medicine Centre",
    "coordinates": {
      "lat": 43.413109,
      "lng": -80.478332
    },
    "longitude": -80.478332,
    "latitude": 43.413109,
    "types": [
      "physiotherapist",
      "health",
      "point_of_interest",
      "establishment"
    ]
  },
  {
    "name": "CBI Health - Kitchener Victoria",
    "coordinates": {
      "lat": 43.4386027,
      "lng": -80.5220176
    },
    "longitude": -80.5220176,
    "latitude": 43.4386027,
    "types": [
      "physiotherapist",
      "health",
      "point_of_interest",
      "establishment"
    ]
  },
  {
    "name": "Waterloo Physiotherapy Massage & Rehabilitation",
    "coordinates": {
      "lat": 43.4823999,
      "lng": -80.5255107
    },
    "longitude": -80.5255107,
    "latitude": 43.4823999,
    "types": [
      "physiotherapist",
      "health",
      "point_of_interest",
      "establishment"
    ]
  },
  {
    "name": "Canadian Decompression & Pain Centre",
    "coordinates": {
      "lat": 43.463129,
      "lng": -80.46571
    },
    "longitude": -80.46571,
    "latitude": 43.463129,
    "types": [
      "physiotherapist",
      "health",
      "point_of_interest",
      "establishment"
    ]
  },
  {
    "name": "Back Works Spinal & Sports Rehabilitation, Ltd.",
    "coordinates": {
      "lat": 43.51809050000001,
      "lng": -80.51633919999999
    },
    "longitude": -80.51633919999999,
    "latitude": 43.51809050000001,
    "types": [
      "physiotherapist",
      "health",
      "point_of_interest",
      "establishment"
    ]
  },
  {
    "name": "Laurelwood Chiropractic Wellness Centre",
    "coordinates": {
      "lat": 43.5062528,
      "lng": -80.52630239999999
    },
    "longitude": -80.52630239999999,
    "latitude": 43.5062528,
    "types": [
      "physiotherapist",
      "health",
      "point_of_interest",
      "establishment"
    ]
  },
  {
    "name": "Waterloo Sports Medicine at RIM Park",
    "coordinates": {
      "lat": 43.519025,
      "lng": -80.5019617
    },
    "longitude": -80.5019617,
    "latitude": 43.519025,
    "types": [
      "physiotherapist",
      "health",
      "point_of_interest",
      "establishment"
    ]
  },
  {
    "name": "Root Physiotherapy",
    "coordinates": {
      "lat": 43.4665304,
      "lng": -80.5207906
    },
    "longitude": -80.5207906,
    "latitude": 43.4665304,
    "types": [
      "physiotherapist",
      "health",
      "point_of_interest",
      "establishment"
    ]
  },
  {
    "name": "CARESPACE Health+Wellness",
    "coordinates": {
      "lat": 43.4636511,
      "lng": -80.523355
    },
    "longitude": -80.523355,
    "latitude": 43.4636511,
    "types": [
      "physiotherapist",
      "health",
      "point_of_interest",
      "establishment"
    ]
  },
  {
    "name": "Pelvic Health Physiotherapy with Helena",
    "coordinates": {
      "lat": 43.4616334,
      "lng": -80.5204237
    },
    "longitude": -80.5204237,
    "latitude": 43.4616334,
    "types": [
      "physiotherapist",
      "health",
      "point_of_interest",
      "establishment"
    ]
  },
  {
    "name": "Eddys Mobile Physio",
    "coordinates": {
      "lat": 43.46467579999999,
      "lng": -80.52906809999999
    },
    "longitude": -80.52906809999999,
    "latitude": 43.46467579999999,
    "types": [
      "physiotherapist",
      "health",
      "point_of_interest",
      "establishment"
    ]
  },
  {
    "name": "Haneen's (Nena) Abuseir Physiotherapy",
    "coordinates": {
      "lat": 43.4695317,
      "lng": -80.5133381
    },
    "longitude": -80.5133381,
    "latitude": 43.4695317,
    "types": [
      "physiotherapist",
      "health",
      "point_of_interest",
      "establishment"
    ]
  },
  {
    "name": "Sarah Arbour Physio",
    "coordinates": {
      "lat": 43.4605762,
      "lng": -80.53217339999999
    },
    "longitude": -80.53217339999999,
    "latitude": 43.4605762,
    "types": [
      "physiotherapist",
      "health",
      "point_of_interest",
      "establishment"
    ]
  },
  {
    "name": "Kw Neuro Rehab",
    "coordinates": {
      "lat": 43.476535,
      "lng": -80.5210311
    },
    "longitude": -80.5210311,
    "latitude": 43.476535,
    "types": [
      "physiotherapist",
      "health",
      "point_of_interest",
      "establishment"
    ]
  },
  {
    "name": "SOS Physiotherapy - Belmont",
    "coordinates": {
      "lat": 43.4503239,
      "lng": -80.5154886
    },
    "longitude": -80.5154886,
    "latitude": 43.4503239,
    "types": [
      "physiotherapist",
      "health",
      "point_of_interest",
      "establishment"
    ]
  },
  {
    "name": "A Balanced Body Health Services",
    "coordinates": {
      "lat": 43.44956579999999,
      "lng": -80.51506499999999
    },
    "longitude": -80.51506499999999,
    "latitude": 43.44956579999999,
    "types": [
      "physiotherapist",
      "health",
      "point_of_interest",
      "establishment"
    ]
  },
  {
    "name": "Sellars Chiropractic & Wellness Centre",
    "coordinates": {
      "lat": 43.4798932,
      "lng": -80.5220417
    },
    "longitude": -80.5220417,
    "latitude": 43.4798932,
    "types": [
      "physiotherapist",
      "health",
      "point_of_interest",
      "establishment"
    ]
  },
  {
    "name": "Ecclestone Physiotherapy",
    "coordinates": {
      "lat": 43.47987810000001,
      "lng": -80.5223078
    },
    "longitude": -80.5223078,
    "latitude": 43.47987810000001,
    "types": [
      "physiotherapist",
      "health",
      "point_of_interest",
      "establishment"
    ]
  },
  {
    "name": "Embody Health Centre",
    "coordinates": {
      "lat": 43.4814667,
      "lng": -80.5254824
    },
    "longitude": -80.5254824,
    "latitude": 43.4814667,
    "types": [
      "physiotherapist",
      "health",
      "point_of_interest",
      "establishment"
    ]
  },
  {
    "name": "Refining Physiotherapy",
    "coordinates": {
      "lat": 43.4600596,
      "lng": -80.4930368
    },
    "longitude": -80.4930368,
    "latitude": 43.4600596,
    "types": [
      "physiotherapist",
      "health",
      "point_of_interest",
      "establishment"
    ]
  },
  {
    "name": "Pelvic Physio by Laura",
    "coordinates": {
      "lat": 43.45635359999999,
      "lng": -80.4943577
    },
    "longitude": -80.4943577,
    "latitude": 43.45635359999999,
    "types": [
      "physiotherapist",
      "health",
      "point_of_interest",
      "establishment"
    ]
  },
  {
    "name": "Pelvic Health Harmony",
    "coordinates": {
      "lat": 43.45635359999999,
      "lng": -80.4943577
    },
    "longitude": -80.4943577,
    "latitude": 43.45635359999999,
    "types": [
      "physiotherapist",
      "health",
      "point_of_interest",
      "establishment"
    ]
  },
  {
    "name": "Encompass Health & Wellness",
    "coordinates": {
      "lat": 43.45635359999999,
      "lng": -80.4943577
    },
    "longitude": -80.4943577,
    "latitude": 43.45635359999999,
    "types": [
      "physiotherapist",
      "health",
      "point_of_interest",
      "establishment"
    ]
  },
  {
    "name": "Dearborn Health",
    "coordinates": {
      "lat": 43.4865042,
      "lng": -80.5172668
    },
    "longitude": -80.5172668,
    "latitude": 43.4865042,
    "types": [
      "physiotherapist",
      "health",
      "point_of_interest",
      "establishment"
    ]
  },
  {
    "name": "Sante MSK Rehab",
    "coordinates": {
      "lat": 43.48773229999999,
      "lng": -80.5281921
    },
    "longitude": -80.5281921,
    "latitude": 43.48773229999999,
    "types": [
      "physiotherapist",
      "health",
      "point_of_interest",
      "establishment"
    ]
  },
  {
    "name": "Goldsworthy Chiropractic & Wellness Centre",
    "coordinates": {
      "lat": 43.48990209999999,
      "lng": -80.51668269999999
    },
    "longitude": -80.51668269999999,
    "latitude": 43.48990209999999,
    "types": [
      "physiotherapist",
      "health",
      "point_of_interest",
      "establishment"
    ]
  },
  {
    "name": "CARESPACE Health+Wellness",
    "coordinates": {
      "lat": 43.4425659,
      "lng": -80.5445136
    },
    "longitude": -80.5445136,
    "latitude": 43.4425659,
    "types": [
      "physiotherapist",
      "health",
      "point_of_interest",
      "establishment"
    ]
  },
  {
    "name": "The Foot Smith Ltd.",
    "coordinates": {
      "lat": 43.4756481,
      "lng": -80.48489459999999
    },
    "longitude": -80.48489459999999,
    "latitude": 43.4756481,
    "types": [
      "physiotherapist",
      "health",
      "point_of_interest",
      "establishment"
    ]
  },
  {
    "name": "LiveWell Health and Physiotherapy",
    "coordinates": {
      "lat": 43.4756301,
      "lng": -80.48476629999999
    },
    "longitude": -80.48476629999999,
    "latitude": 43.4756301,
    "types": [
      "physiotherapist",
      "health",
      "point_of_interest",
      "establishment"
    ]
  },
  {
    "name": "Erin Memering Pediatric Physiotherapy",
    "coordinates": {
      "lat": 43.4945239,
      "lng": -80.5315981
    },
    "longitude": -80.5315981,
    "latitude": 43.4945239,
    "types": [
      "physiotherapist",
      "health",
      "point_of_interest",
      "establishment"
    ]
  },
  {
    "name": "Frederick Physiotherapy",
    "coordinates": {
      "lat": 43.4554897,
      "lng": -80.4789227
    },
    "longitude": -80.4789227,
    "latitude": 43.4554897,
    "types": [
      "physiotherapist",
      "health",
      "point_of_interest",
      "establishment"
    ]
  }
]