[
  {
    "name": "U-Haul Moving & Storage of Waterloo",
    "coordinates": {
      "lat": 43.5011167,
      "lng": -80.53968549999999
    },
    "longitude": -80.53968549999999,
    "latitude": 43.5011167,
    "types": [
      "moving_company",
      "storage",
      "point_of_interest",
      "store",
      "establishment"
    ]
  },
  {
    "name": "U-Haul Moving & Storage of Downtown Kitchener",
    "coordinates": {
      "lat": 43.4518848,
      "lng": -80.4981263
    },
    "longitude": -80.4981263,
    "latitude": 43.4518848,
    "types": [
      "moving_company",
      "storage",
      "point_of_interest",
      "store",
      "establishment"
    ]
  },
  {
    "name": "Apple Self Storage - Waterloo",
    "coordinates": {
      "lat": 43.4816381,
      "lng": -80.5166528
    },
    "longitude": -80.5166528,
    "latitude": 43.4816381,
    "types": [
      "storage",
      "point_of_interest",
      "store",
      "establishment"
    ]
  },
  {
    "name": "Vinomiro",
    "coordinates": {
      "lat": 43.4453709,
      "lng": -80.52144559999999
    },
    "longitude": -80.52144559999999,
    "latitude": 43.4453709,
    "types": [
      "storage",
      "liquor_store",
      "point_of_interest",
      "food",
      "store",
      "establishment"
    ]
  },
  {
    "name": "Brenneman Filing Systems",
    "coordinates": {
      "lat": 43.4057588,
      "lng": -80.48977339999999
    },
    "longitude": -80.48977339999999,
    "latitude": 43.4057588,
    "types": [
      "storage",
      "point_of_interest",
      "establishment"
    ]
  },
  {
    "name": "Delivery Guys Inc.",
    "coordinates": {
      "lat": 43.493567,
      "lng": -80.5428891
    },
    "longitude": -80.5428891,
    "latitude": 43.493567,
    "types": [
      "storage",
      "point_of_interest",
      "establishment"
    ]
  },
  {
    "name": "Evergreen Transfer Moving Services Ltd",
    "coordinates": {
      "lat": 43.41930349999999,
      "lng": -80.482241
    },
    "longitude": -80.482241,
    "latitude": 43.41930349999999,
    "types": [
      "moving_company",
      "storage",
      "point_of_interest",
      "establishment"
    ]
  },
  {
    "name": "St Jacobs Furniture House Warehouse Pickups ONLY",
    "coordinates": {
      "lat": 43.5118554,
      "lng": -80.5253623
    },
    "longitude": -80.5253623,
    "latitude": 43.5118554,
    "types": [
      "storage",
      "point_of_interest",
      "establishment"
    ]
  },
  {
    "name": "Family Movers Tri-City",
    "coordinates": {
      "lat": 43.48162549999999,
      "lng": -80.5167415
    },
    "longitude": -80.5167415,
    "latitude": 43.48162549999999,
    "types": [
      "moving_company",
      "storage",
      "point_of_interest",
      "establishment"
    ]
  },
  {
    "name": "Steve's Moving & Storage",
    "coordinates": {
      "lat": 43.4463338,
      "lng": -80.5195646
    },
    "longitude": -80.5195646,
    "latitude": 43.4463338,
    "types": [
      "moving_company",
      "storage",
      "point_of_interest",
      "establishment"
    ]
  },
  {
    "name": "YouPackWeStore Student Storage",
    "coordinates": {
      "lat": 43.4777399,
      "lng": -80.5401093
    },
    "longitude": -80.5401093,
    "latitude": 43.4777399,
    "types": [
      "moving_company",
      "storage",
      "point_of_interest",
      "establishment"
    ]
  },
  {
    "name": "QLO LUBE SUPPLY",
    "coordinates": {
      "lat": 43.48748669999999,
      "lng": -80.51786969999999
    },
    "longitude": -80.51786969999999,
    "latitude": 43.48748669999999,
    "types": [
      "storage",
      "car_repair",
      "point_of_interest",
      "establishment"
    ]
  },
  {
    "name": "Heidelberg Foods Cold Storage",
    "coordinates": {
      "lat": 43.4397683,
      "lng": -80.4774573
    },
    "longitude": -80.4774573,
    "latitude": 43.4397683,
    "types": [
      "storage",
      "point_of_interest",
      "establishment"
    ]
  },
  {
    "name": "RecordXpress Kitchener",
    "coordinates": {
      "lat": 43.44173209999999,
      "lng": -80.4745196
    },
    "longitude": -80.4745196,
    "latitude": 43.44173209999999,
    "types": [
      "storage",
      "point_of_interest",
      "establishment"
    ]
  },
  {
    "name": "Kumpfort Zone Warehousing Inc.",
    "coordinates": {
      "lat": 43.503199,
      "lng": -80.540088
    },
    "longitude": -80.540088,
    "latitude": 43.503199,
    "types": [
      "storage",
      "point_of_interest",
      "establishment"
    ]
  },
  {
    "name": "Access Storage - Kitchener Alpine",
    "coordinates": {
      "lat": 43.4250033,
      "lng": -80.46962839999999
    },
    "longitude": -80.46962839999999,
    "latitude": 43.4250033,
    "types": [
      "storage",
      "point_of_interest",
      "establishment"
    ]
  },
  {
    "name": "Access Storage - Kitchener East",
    "coordinates": {
      "lat": 43.4717642,
      "lng": -80.4380496
    },
    "longitude": -80.4380496,
    "latitude": 43.4717642,
    "types": [
      "storage",
      "point_of_interest",
      "store",
      "establishment"
    ]
  },
  {
    "name": "Stallion Movers",
    "coordinates": {
      "lat": 43.40468889999999,
      "lng": -80.47691789999999
    },
    "longitude": -80.47691789999999,
    "latitude": 43.40468889999999,
    "types": [
      "moving_company",
      "storage",
      "point_of_interest",
      "store",
      "establishment"
    ]
  },
  {
    "name": "Agreed Moving and Storage Inc.",
    "coordinates": {
      "lat": 43.4209793,
      "lng": -80.4476892
    },
    "longitude": -80.4476892,
    "latitude": 43.4209793,
    "types": [
      "moving_company",
      "storage",
      "point_of_interest",
      "establishment"
    ]
  },
  {
    "name": "Access Storage - Kitchener North",
    "coordinates": {
      "lat": 43.4799612,
      "lng": -80.42676399999999
    },
    "longitude": -80.42676399999999,
    "latitude": 43.4799612,
    "types": [
      "storage",
      "point_of_interest",
      "store",
      "establishment"
    ]
  },
  {
    "name": "Commercial Moving Services Inc",
    "coordinates": {
      "lat": 43.4033297,
      "lng": -80.4617983
    },
    "longitude": -80.4617983,
    "latitude": 43.4033297,
    "types": [
      "moving_company",
      "storage",
      "point_of_interest",
      "establishment"
    ]
  },
  {
    "name": "Universal Truck Rental, Moving & Storage",
    "coordinates": {
      "lat": 43.4085635,
      "lng": -80.4496511
    },
    "longitude": -80.4496511,
    "latitude": 43.4085635,
    "types": [
      "storage",
      "point_of_interest",
      "establishment"
    ]
  },
  {
    "name": "Capital Traffic Systems Inc.",
    "coordinates": {
      "lat": 43.4022964,
      "lng": -80.4623642
    },
    "longitude": -80.4623642,
    "latitude": 43.4022964,
    "types": [
      "storage",
      "point_of_interest",
      "establishment"
    ]
  },
  {
    "name": "Onward Manufacturing Company | Central Distribution",
    "coordinates": {
      "lat": 43.4653139,
      "lng": -80.467428
    },
    "longitude": -80.467428,
    "latitude": 43.4653139,
    "types": [
      "storage",
      "point_of_interest",
      "establishment"
    ]
  },
  {
    "name": "Baird Moving Inc",
    "coordinates": {
      "lat": 43.4006651,
      "lng": -80.4725423
    },
    "longitude": -80.4725423,
    "latitude": 43.4006651,
    "types": [
      "moving_company",
      "storage",
      "point_of_interest",
      "establishment"
    ]
  },
  {
    "name": "Self Storage Plus",
    "coordinates": {
      "lat": 43.47167269999999,
      "lng": -80.4382693
    },
    "longitude": -80.4382693,
    "latitude": 43.47167269999999,
    "types": [
      "moving_company",
      "storage",
      "store",
      "point_of_interest",
      "establishment"
    ]
  },
  {
    "name": "Access Storage - Kitchener Central",
    "coordinates": {
      "lat": 43.44145899999999,
      "lng": -80.47384559999999
    },
    "longitude": -80.47384559999999,
    "latitude": 43.44145899999999,
    "types": [
      "storage",
      "store",
      "point_of_interest",
      "establishment"
    ]
  },
  {
    "name": "Kitchener Waterloo Movers",
    "coordinates": {
      "lat": 43.4499365,
      "lng": -80.4904389
    },
    "longitude": -80.4904389,
    "latitude": 43.4499365,
    "types": [
      "moving_company",
      "storage",
      "store",
      "point_of_interest",
      "establishment"
    ]
  },
  {
    "name": "KW Safe Storage - Self Storage Units in Kitchener Waterloo",
    "coordinates": {
      "lat": 43.4627411,
      "lng": -80.51032909999999
    },
    "longitude": -80.51032909999999,
    "latitude": 43.4627411,
    "types": [
      "moving_company",
      "storage",
      "point_of_interest",
      "establishment"
    ]
  },
  {
    "name": "Access Storage - Kitchener Woodside",
    "coordinates": {
      "lat": 43.4656952,
      "lng": -80.47928639999999
    },
    "longitude": -80.47928639999999,
    "latitude": 43.4656952,
    "types": [
      "storage",
      "store",
      "point_of_interest",
      "establishment"
    ]
  },
  {
    "name": "Access Storage - Waterloo - Kitchener",
    "coordinates": {
      "lat": 43.4422521,
      "lng": -80.49527619999999
    },
    "longitude": -80.49527619999999,
    "latitude": 43.4422521,
    "types": [
      "storage",
      "point_of_interest",
      "establishment"
    ]
  },
  {
    "name": "Crown Courier",
    "coordinates": {
      "lat": 43.39930529999999,
      "lng": -80.4777622
    },
    "longitude": -80.4777622,
    "latitude": 43.39930529999999,
    "types": [
      "storage",
      "point_of_interest",
      "establishment"
    ]
  },
  {
    "name": "Schooner Self Storage",
    "coordinates": {
      "lat": 43.4932581,
      "lng": -80.53401319999999
    },
    "longitude": -80.53401319999999,
    "latitude": 43.4932581,
    "types": [
      "storage",
      "point_of_interest",
      "establishment"
    ]
  },
  {
    "name": "Space at Hand Self Storage - Kitchener Gage Avenue",
    "coordinates": {
      "lat": 43.44635539999999,
      "lng": -80.5161602
    },
    "longitude": -80.5161602,
    "latitude": 43.44635539999999,
    "types": [
      "moving_company",
      "storage",
      "store",
      "point_of_interest",
      "establishment"
    ]
  },
  {
    "name": "USC",
    "coordinates": {
      "lat": 43.4008413,
      "lng": -80.4760041
    },
    "longitude": -80.4760041,
    "latitude": 43.4008413,
    "types": [
      "storage",
      "point_of_interest",
      "establishment"
    ]
  },
  {
    "name": "Additional Self Storage",
    "coordinates": {
      "lat": 43.5170406,
      "lng": -80.573849
    },
    "longitude": -80.573849,
    "latitude": 43.5170406,
    "types": [
      "storage",
      "point_of_interest",
      "establishment"
    ]
  },
  {
    "name": "Canada Moving",
    "coordinates": {
      "lat": 43.494644,
      "lng": -80.53406679999999
    },
    "longitude": -80.53406679999999,
    "latitude": 43.494644,
    "types": [
      "moving_company",
      "storage",
      "point_of_interest",
      "establishment"
    ]
  },
  {
    "name": "A-Plus Office Movers Inc.",
    "coordinates": {
      "lat": 43.46425800000001,
      "lng": -80.52041
    },
    "longitude": -80.52041,
    "latitude": 43.46425800000001,
    "types": [
      "moving_company",
      "storage",
      "point_of_interest",
      "establishment"
    ]
  },
  {
    "name": "Ecoway Movers Waterloo ON | Moving Company",
    "coordinates": {
      "lat": 43.4648076,
      "lng": -80.521577
    },
    "longitude": -80.521577,
    "latitude": 43.4648076,
    "types": [
      "moving_company",
      "storage",
      "point_of_interest",
      "establishment"
    ]
  },
  {
    "name": "Metropolitan Van Lines",
    "coordinates": {
      "lat": 43.46468419999999,
      "lng": -80.5219077
    },
    "longitude": -80.5219077,
    "latitude": 43.46468419999999,
    "types": [
      "moving_company",
      "storage",
      "point_of_interest",
      "establishment"
    ]
  },
  {
    "name": "Public Storage",
    "coordinates": {
      "lat": 43.46229719999999,
      "lng": -80.5020262
    },
    "longitude": -80.5020262,
    "latitude": 43.46229719999999,
    "types": [
      "point_of_interest",
      "store",
      "storage",
      "establishment"
    ]
  },
  {
    "name": "Joska Inventory",
    "coordinates": {
      "lat": 43.4781427,
      "lng": -80.52318629999999
    },
    "longitude": -80.52318629999999,
    "latitude": 43.4781427,
    "types": [
      "point_of_interest",
      "storage",
      "establishment"
    ]
  },
  {
    "name": "CanCompare Movers kitchener",
    "coordinates": {
      "lat": 43.45406879999999,
      "lng": -80.4995891
    },
    "longitude": -80.4995891,
    "latitude": 43.45406879999999,
    "types": [
      "moving_company",
      "point_of_interest",
      "storage",
      "establishment"
    ]
  },
  {
    "name": "Move It Right",
    "coordinates": {
      "lat": 43.4452928,
      "lng": -80.5188311
    },
    "longitude": -80.5188311,
    "latitude": 43.4452928,
    "types": [
      "moving_company",
      "point_of_interest",
      "storage",
      "establishment"
    ]
  },
  {
    "name": "Reship Forwarding Center #34",
    "coordinates": {
      "lat": 43.4444588,
      "lng": -80.5172284
    },
    "longitude": -80.5172284,
    "latitude": 43.4444588,
    "types": [
      "point_of_interest",
      "storage",
      "establishment"
    ]
  },
  {
    "name": "Climate Controlled Self-Storage",
    "coordinates": {
      "lat": 43.4519504,
      "lng": -80.4984592
    },
    "longitude": -80.4984592,
    "latitude": 43.4519504,
    "types": [
      "point_of_interest",
      "storage",
      "establishment"
    ]
  },
  {
    "name": "U-Box at U-Haul",
    "coordinates": {
      "lat": 43.452125,
      "lng": -80.4978972
    },
    "longitude": -80.4978972,
    "latitude": 43.452125,
    "types": [
      "moving_company",
      "point_of_interest",
      "store",
      "storage",
      "establishment"
    ]
  },
  {
    "name": "Trailer Rental at U-Haul",
    "coordinates": {
      "lat": 43.452125,
      "lng": -80.4978972
    },
    "longitude": -80.4978972,
    "latitude": 43.452125,
    "types": [
      "moving_company",
      "car_repair",
      "point_of_interest",
      "store",
      "storage",
      "establishment"
    ]
  },
  {
    "name": "Self-Storage at U-Haul",
    "coordinates": {
      "lat": 43.452125,
      "lng": -80.4978972
    },
    "longitude": -80.4978972,
    "latitude": 43.452125,
    "types": [
      "moving_company",
      "point_of_interest",
      "storage",
      "establishment"
    ]
  },
  {
    "name": "Home Hardware Innovation Centre",
    "coordinates": {
      "lat": 43.4816396,
      "lng": -80.5405461
    },
    "longitude": -80.5405461,
    "latitude": 43.4816396,
    "types": [
      "point_of_interest",
      "storage",
      "establishment"
    ]
  },
  {
    "name": "Omero's Moving Kitchener Ontario",
    "coordinates": {
      "lat": 43.4517557,
      "lng": -80.49360229999999
    },
    "longitude": -80.49360229999999,
    "latitude": 43.4517557,
    "types": [
      "moving_company",
      "point_of_interest",
      "storage",
      "establishment"
    ]
  },
  {
    "name": "Panorama Windows and Doors Kitchener",
    "coordinates": {
      "lat": 43.450029,
      "lng": -80.4878044
    },
    "longitude": -80.4878044,
    "latitude": 43.450029,
    "types": [
      "general_contractor",
      "point_of_interest",
      "store",
      "storage",
      "establishment"
    ]
  },
  {
    "name": "Easy Moving Solutions",
    "coordinates": {
      "lat": 43.4421438,
      "lng": -80.4961337
    },
    "longitude": -80.4961337,
    "latitude": 43.4421438,
    "types": [
      "moving_company",
      "point_of_interest",
      "storage",
      "establishment"
    ]
  },
  {
    "name": "KW Storage Solutions",
    "coordinates": {
      "lat": 43.4693737,
      "lng": -80.4818555
    },
    "longitude": -80.4818555,
    "latitude": 43.4693737,
    "types": [
      "point_of_interest",
      "storage",
      "establishment"
    ]
  },
  {
    "name": "The Delivery Guys Inc.",
    "coordinates": {
      "lat": 43.4707429,
      "lng": -80.4813418
    },
    "longitude": -80.4813418,
    "latitude": 43.4707429,
    "types": [
      "point_of_interest",
      "storage",
      "establishment"
    ]
  },
  {
    "name": "Kratos Moving Company",
    "coordinates": {
      "lat": 43.49344139999999,
      "lng": -80.5218897
    },
    "longitude": -80.5218897,
    "latitude": 43.49344139999999,
    "types": [
      "moving_company",
      "point_of_interest",
      "storage",
      "establishment"
    ]
  },
  {
    "name": "Access Storage - Kitchener Northward",
    "coordinates": {
      "lat": 43.4695781,
      "lng": -80.4804305
    },
    "longitude": -80.4804305,
    "latitude": 43.4695781,
    "types": [
      "point_of_interest",
      "store",
      "storage",
      "establishment"
    ]
  },
  {
    "name": "Superior Mover",
    "coordinates": {
      "lat": 43.4506278,
      "lng": -80.4839871
    },
    "longitude": -80.4839871,
    "latitude": 43.4506278,
    "types": [
      "moving_company",
      "point_of_interest",
      "storage",
      "establishment"
    ]
  },
  {
    "name": "High Level Movers Kitchener | Moving Company",
    "coordinates": {
      "lat": 43.4666313,
      "lng": -80.4786793
    },
    "longitude": -80.4786793,
    "latitude": 43.4666313,
    "types": [
      "moving_company",
      "point_of_interest",
      "storage",
      "establishment"
    ]
  },
  {
    "name": "ALTBIN SELF STORAGE",
    "coordinates": {
      "lat": 43.4806221,
      "lng": -80.4850094
    },
    "longitude": -80.4850094,
    "latitude": 43.4806221,
    "types": [
      "point_of_interest",
      "storage",
      "establishment"
    ]
  }
]