[
  {
    "name": "Kitchener GO",
    "coordinates": {
      "lat": 43.4556359,
      "lng": -80.4931737
    },
    "longitude": -80.4931737,
    "latitude": 43.4556359,
    "types": [
      "transit_station",
      "train_station",
      "point_of_interest",
      "establishment"
    ]
  },
  {
    "name": "Willis Way Station",
    "coordinates": {
      "lat": 43.462149,
      "lng": -80.523369
    },
    "longitude": -80.523369,
    "latitude": 43.462149,
    "types": [
      "train_station",
      "transit_station",
      "point_of_interest",
      "establishment"
    ]
  },
  {
    "name": "Allen",
    "coordinates": {
      "lat": 43.45983699999999,
      "lng": -80.51839199999999
    },
    "longitude": -80.51839199999999,
    "latitude": 43.45983699999999,
    "types": [
      "train_station",
      "transit_station",
      "point_of_interest",
      "establishment"
    ]
  },
  {
    "name": "Laurier-Waterloo Park Station",
    "coordinates": {
      "lat": 43.46894769999999,
      "lng": -80.5345478
    },
    "longitude": -80.5345478,
    "latitude": 43.46894769999999,
    "types": [
      "train_station",
      "transit_station",
      "point_of_interest",
      "establishment"
    ]
  },
  {
    "name": "University Of Waterloo Station",
    "coordinates": {
      "lat": 43.473413,
      "lng": -80.541297
    },
    "longitude": -80.541297,
    "latitude": 43.473413,
    "types": [
      "train_station",
      "transit_station",
      "point_of_interest",
      "establishment"
    ]
  },
  {
    "name": "Central Station",
    "coordinates": {
      "lat": 43.453262,
      "lng": -80.499049
    },
    "longitude": -80.499049,
    "latitude": 43.453262,
    "types": [
      "train_station",
      "transit_station",
      "point_of_interest",
      "establishment"
    ]
  },
  {
    "name": "Central Station",
    "coordinates": {
      "lat": 43.45308,
      "lng": -80.499172
    },
    "longitude": -80.499172,
    "latitude": 43.45308,
    "types": [
      "train_station",
      "transit_station",
      "point_of_interest",
      "establishment"
    ]
  },
  {
    "name": "Victoria Park Station",
    "coordinates": {
      "lat": 43.450181,
      "lng": -80.49368799999999
    },
    "longitude": -80.49368799999999,
    "latitude": 43.450181,
    "types": [
      "train_station",
      "transit_station",
      "point_of_interest",
      "establishment"
    ]
  },
  {
    "name": "Kitchener City Hall Station",
    "coordinates": {
      "lat": 43.45194100000001,
      "lng": -80.490831
    },
    "longitude": -80.490831,
    "latitude": 43.45194100000001,
    "types": [
      "train_station",
      "transit_station",
      "point_of_interest",
      "establishment"
    ]
  },
  {
    "name": "Research & Technology Station",
    "coordinates": {
      "lat": 43.4816031,
      "lng": -80.5451813
    },
    "longitude": -80.5451813,
    "latitude": 43.4816031,
    "types": [
      "train_station",
      "transit_station",
      "point_of_interest",
      "establishment"
    ]
  },
  {
    "name": "Queen",
    "coordinates": {
      "lat": 43.44871109999999,
      "lng": -80.4896581
    },
    "longitude": -80.4896581,
    "latitude": 43.44871109999999,
    "types": [
      "train_station",
      "transit_station",
      "point_of_interest",
      "establishment"
    ]
  },
  {
    "name": "Frederick",
    "coordinates": {
      "lat": 43.449639,
      "lng": -80.48736099999999
    },
    "longitude": -80.48736099999999,
    "latitude": 43.449639,
    "types": [
      "train_station",
      "transit_station",
      "point_of_interest",
      "establishment"
    ]
  },
  {
    "name": "Kitchener Market Station",
    "coordinates": {
      "lat": 43.446324,
      "lng": -80.483605
    },
    "longitude": -80.483605,
    "latitude": 43.446324,
    "types": [
      "train_station",
      "transit_station",
      "point_of_interest",
      "establishment"
    ]
  },
  {
    "name": "Conestoga Station",
    "coordinates": {
      "lat": 43.498272,
      "lng": -80.529596
    },
    "longitude": -80.529596,
    "latitude": 43.498272,
    "types": [
      "train_station",
      "transit_station",
      "point_of_interest",
      "establishment"
    ]
  },
  {
    "name": "Conestoga Station",
    "coordinates": {
      "lat": 43.498294,
      "lng": -80.529518
    },
    "longitude": -80.529518,
    "latitude": 43.498294,
    "types": [
      "train_station",
      "transit_station",
      "point_of_interest",
      "establishment"
    ]
  },
  {
    "name": "Borden Station",
    "coordinates": {
      "lat": 43.442396,
      "lng": -80.475371
    },
    "longitude": -80.475371,
    "latitude": 43.442396,
    "types": [
      "train_station",
      "transit_station",
      "point_of_interest",
      "establishment"
    ]
  },
  {
    "name": "Mill Station",
    "coordinates": {
      "lat": 43.43363310000001,
      "lng": -80.4779405
    },
    "longitude": -80.4779405,
    "latitude": 43.43363310000001,
    "types": [
      "train_station",
      "transit_station",
      "point_of_interest",
      "establishment"
    ]
  },
  {
    "name": "Block Line Station",
    "coordinates": {
      "lat": 43.422825,
      "lng": -80.462926
    },
    "longitude": -80.462926,
    "latitude": 43.422825,
    "types": [
      "train_station",
      "transit_station",
      "point_of_interest",
      "establishment"
    ]
  },
  {
    "name": "Fairway",
    "coordinates": {
      "lat": 43.422363,
      "lng": -80.44184299999999
    },
    "longitude": -80.44184299999999,
    "latitude": 43.422363,
    "types": [
      "train_station",
      "transit_station",
      "point_of_interest",
      "establishment"
    ]
  },
  {
    "name": "Fairway Station",
    "coordinates": {
      "lat": 43.422295,
      "lng": -80.441812
    },
    "longitude": -80.441812,
    "latitude": 43.422295,
    "types": [
      "train_station",
      "transit_station",
      "point_of_interest",
      "establishment"
    ]
  }
]