[
  {
    "name": "World on Wheelz Travel",
    "coordinates": {
      "lat": 43.49575099999999,
      "lng": -80.5482758
    },
    "longitude": -80.5482758,
    "latitude": 43.49575099999999,
    "types": [
      "travel_agency",
      "point_of_interest",
      "establishment"
    ]
  },
  {
    "name": "Visitor Information Centre",
    "coordinates": {
      "lat": 43.46447569999999,
      "lng": -80.526943
    },
    "longitude": -80.526943,
    "latitude": 43.46447569999999,
    "types": [
      "travel_agency",
      "point_of_interest",
      "establishment"
    ]
  },
  {
    "name": "Tierra Tours",
    "coordinates": {
      "lat": 43.4587642,
      "lng": -80.5155698
    },
    "longitude": -80.5155698,
    "latitude": 43.4587642,
    "types": [
      "travel_agency",
      "point_of_interest",
      "establishment"
    ]
  },
  {
    "name": "Olga Leonetti at Northstar Travel",
    "coordinates": {
      "lat": 43.4531386,
      "lng": -80.5174452
    },
    "longitude": -80.5174452,
    "latitude": 43.4531386,
    "types": [
      "travel_agency",
      "point_of_interest",
      "establishment"
    ]
  },
  {
    "name": "Regional Tourism Organization 4 Inc",
    "coordinates": {
      "lat": 43.4509118,
      "lng": -80.5135779
    },
    "longitude": -80.5135779,
    "latitude": 43.4509118,
    "types": [
      "travel_agency",
      "local_government_office",
      "point_of_interest",
      "establishment"
    ]
  },
  {
    "name": "Visitors Centre",
    "coordinates": {
      "lat": 43.46910839999999,
      "lng": -80.54025209999999
    },
    "longitude": -80.54025209999999,
    "latitude": 43.46910839999999,
    "types": [
      "travel_agency",
      "point_of_interest",
      "establishment"
    ]
  },
  {
    "name": "Bucket List Travel Adventures",
    "coordinates": {
      "lat": 43.4804201,
      "lng": -80.5230905
    },
    "longitude": -80.5230905,
    "latitude": 43.4804201,
    "types": [
      "travel_agency",
      "point_of_interest",
      "establishment"
    ]
  },
  {
    "name": "Capetian Tours",
    "coordinates": {
      "lat": 43.4447495,
      "lng": -80.52886869999999
    },
    "longitude": -80.52886869999999,
    "latitude": 43.4447495,
    "types": [
      "travel_agency",
      "point_of_interest",
      "establishment"
    ]
  },
  {
    "name": "Bonus Travel",
    "coordinates": {
      "lat": 43.4410743,
      "lng": -80.5018966
    },
    "longitude": -80.5018966,
    "latitude": 43.4410743,
    "types": [
      "travel_agency",
      "point_of_interest",
      "establishment"
    ]
  },
  {
    "name": "Maritime Travel",
    "coordinates": {
      "lat": 43.4287135,
      "lng": -80.5264543
    },
    "longitude": -80.5264543,
    "latitude": 43.4287135,
    "types": [
      "travel_agency",
      "point_of_interest",
      "establishment"
    ]
  },
  {
    "name": "Expedia Cruises",
    "coordinates": {
      "lat": 43.5041092,
      "lng": -80.5281745
    },
    "longitude": -80.5281745,
    "latitude": 43.5041092,
    "types": [
      "travel_agency",
      "health",
      "point_of_interest",
      "establishment"
    ]
  },
  {
    "name": "Expedia Cruises",
    "coordinates": {
      "lat": 43.4251841,
      "lng": -80.5540718
    },
    "longitude": -80.5540718,
    "latitude": 43.4251841,
    "types": [
      "travel_agency",
      "point_of_interest",
      "establishment"
    ]
  },
  {
    "name": "Delta Travel Inc",
    "coordinates": {
      "lat": 43.4735957,
      "lng": -80.43475529999999
    },
    "longitude": -80.43475529999999,
    "latitude": 43.4735957,
    "types": [
      "travel_agency",
      "point_of_interest",
      "establishment"
    ]
  },
  {
    "name": "Pure Magic Vacations KW",
    "coordinates": {
      "lat": 43.4770972,
      "lng": -80.419629
    },
    "longitude": -80.419629,
    "latitude": 43.4770972,
    "types": [
      "travel_agency",
      "point_of_interest",
      "establishment"
    ]
  },
  {
    "name": "Conestogo River Horseback Adventures",
    "coordinates": {
      "lat": 43.5208615,
      "lng": -80.5155963
    },
    "longitude": -80.5155963,
    "latitude": 43.5208615,
    "types": [
      "tourist_attraction",
      "travel_agency",
      "point_of_interest",
      "establishment"
    ]
  },
  {
    "name": "tripcentral.ca Beechwood is Temporarily Closed",
    "coordinates": {
      "lat": 43.4524949,
      "lng": -80.5543089
    },
    "longitude": -80.5543089,
    "latitude": 43.4524949,
    "types": [
      "travel_agency",
      "point_of_interest",
      "establishment"
    ]
  },
  {
    "name": "Off The Map Adventures Ltd",
    "coordinates": {
      "lat": 43.4421438,
      "lng": -80.49613289999999
    },
    "longitude": -80.49613289999999,
    "latitude": 43.4421438,
    "types": [
      "travel_agency",
      "point_of_interest",
      "establishment"
    ]
  },
  {
    "name": "VIP Travel",
    "coordinates": {
      "lat": 43.4802107,
      "lng": -80.5226789
    },
    "longitude": -80.5226789,
    "latitude": 43.4802107,
    "types": [
      "travel_agency",
      "point_of_interest",
      "establishment"
    ]
  },
  {
    "name": "Direct Travel - Waterloo",
    "coordinates": {
      "lat": 43.4586846,
      "lng": -80.5156416
    },
    "longitude": -80.5156416,
    "latitude": 43.4586846,
    "types": [
      "travel_agency",
      "point_of_interest",
      "establishment"
    ]
  },
  {
    "name": "Transat Travel",
    "coordinates": {
      "lat": 43.424046,
      "lng": -80.43827999999999
    },
    "longitude": -80.43827999999999,
    "latitude": 43.424046,
    "types": [
      "travel_agency",
      "point_of_interest",
      "establishment"
    ]
  },
  {
    "name": "GROUNDHOG DIVERS",
    "coordinates": {
      "lat": 43.4808164,
      "lng": -80.4622748
    },
    "longitude": -80.4622748,
    "latitude": 43.4808164,
    "types": [
      "school",
      "travel_agency",
      "point_of_interest",
      "store",
      "establishment"
    ]
  },
  {
    "name": "Vikittours Hung-Thanh",
    "coordinates": {
      "lat": 43.4476923,
      "lng": -80.48444219999999
    },
    "longitude": -80.48444219999999,
    "latitude": 43.4476923,
    "types": [
      "travel_agency",
      "point_of_interest",
      "establishment"
    ]
  },
  {
    "name": "Choose Your Thrill",
    "coordinates": {
      "lat": 43.4523229,
      "lng": -80.492099
    },
    "longitude": -80.492099,
    "latitude": 43.4523229,
    "types": [
      "travel_agency",
      "gym",
      "health",
      "point_of_interest",
      "establishment"
    ]
  },
  {
    "name": "Northstar Travel & Cruisecentral.ca",
    "coordinates": {
      "lat": 43.4532031,
      "lng": -80.51749360000001
    },
    "longitude": -80.51749360000001,
    "latitude": 43.4532031,
    "types": [
      "travel_agency",
      "point_of_interest",
      "establishment"
    ]
  },
  {
    "name": "Cycle Ontario",
    "coordinates": {
      "lat": 43.48656319999999,
      "lng": -80.5573174
    },
    "longitude": -80.5573174,
    "latitude": 43.48656319999999,
    "types": [
      "travel_agency",
      "point_of_interest",
      "establishment"
    ]
  },
  {
    "name": "Rainy Day Travel Services",
    "coordinates": {
      "lat": 43.4649285,
      "lng": -80.5184042
    },
    "longitude": -80.5184042,
    "latitude": 43.4649285,
    "types": [
      "travel_agency",
      "point_of_interest",
      "establishment"
    ]
  },
  {
    "name": "Dream Plan Experience",
    "coordinates": {
      "lat": 43.462884,
      "lng": -80.5183824
    },
    "longitude": -80.5183824,
    "latitude": 43.462884,
    "types": [
      "travel_agency",
      "point_of_interest",
      "establishment"
    ]
  },
  {
    "name": "The TravelGuyyz",
    "coordinates": {
      "lat": 43.4531386,
      "lng": -80.5174452
    },
    "longitude": -80.5174452,
    "latitude": 43.4531386,
    "types": [
      "travel_agency",
      "point_of_interest",
      "establishment"
    ]
  },
  {
    "name": "MARGARITA TRAVEL CONSULTING - CLUB MED AGENT",
    "coordinates": {
      "lat": 43.453074,
      "lng": -80.5173969
    },
    "longitude": -80.5173969,
    "latitude": 43.453074,
    "types": [
      "travel_agency",
      "point_of_interest",
      "establishment"
    ]
  },
  {
    "name": "Socially Responsible Safaris",
    "coordinates": {
      "lat": 43.453074,
      "lng": -80.5173969
    },
    "longitude": -80.5173969,
    "latitude": 43.453074,
    "types": [
      "travel_agency",
      "point_of_interest",
      "establishment"
    ]
  },
  {
    "name": "MODE Immigration| Canadian immigration consultant service | Work permit in Canada | Canadian Immigration Lawyer",
    "coordinates": {
      "lat": 43.4773461,
      "lng": -80.5256995
    },
    "longitude": -80.5256995,
    "latitude": 43.4773461,
    "types": [
      "local_government_office",
      "lawyer",
      "travel_agency",
      "health",
      "point_of_interest",
      "establishment"
    ]
  },
  {
    "name": "Daw Immigration Solutions Inc.",
    "coordinates": {
      "lat": 43.4796677,
      "lng": -80.5221442
    },
    "longitude": -80.5221442,
    "latitude": 43.4796677,
    "types": [
      "travel_agency",
      "point_of_interest",
      "establishment"
    ]
  },
  {
    "name": "Jusseg Travels Limited",
    "coordinates": {
      "lat": 43.47573999999999,
      "lng": -80.53851
    },
    "longitude": -80.53851,
    "latitude": 43.47573999999999,
    "types": [
      "travel_agency",
      "point_of_interest",
      "establishment"
    ]
  },
  {
    "name": "AC Tours",
    "coordinates": {
      "lat": 43.48102790000001,
      "lng": -80.5061028
    },
    "longitude": -80.5061028,
    "latitude": 43.48102790000001,
    "types": [
      "travel_agency",
      "point_of_interest",
      "establishment"
    ]
  },
  {
    "name": "Renison Welcome Centre",
    "coordinates": {
      "lat": 43.4689969,
      "lng": -80.5474235
    },
    "longitude": -80.5474235,
    "latitude": 43.4689969,
    "types": [
      "travel_agency",
      "point_of_interest",
      "establishment"
    ]
  },
  {
    "name": "SuperVisas",
    "coordinates": {
      "lat": 43.4509558,
      "lng": -80.49816969999999
    },
    "longitude": -80.49816969999999,
    "latitude": 43.4509558,
    "types": [
      "travel_agency",
      "point_of_interest",
      "establishment"
    ]
  },
  {
    "name": "Community Travel Co.",
    "coordinates": {
      "lat": 43.4509558,
      "lng": -80.49816969999999
    },
    "longitude": -80.49816969999999,
    "latitude": 43.4509558,
    "types": [
      "travel_agency",
      "point_of_interest",
      "establishment"
    ]
  },
  {
    "name": "Oshun Sailing",
    "coordinates": {
      "lat": 43.46487189999999,
      "lng": -80.48839749999999
    },
    "longitude": -80.48839749999999,
    "latitude": 43.46487189999999,
    "types": [
      "travel_agency",
      "point_of_interest",
      "establishment"
    ]
  },
  {
    "name": "Educare Services Inc",
    "coordinates": {
      "lat": 43.4871698,
      "lng": -80.52837199999999
    },
    "longitude": -80.52837199999999,
    "latitude": 43.4871698,
    "types": [
      "travel_agency",
      "point_of_interest",
      "establishment"
    ]
  },
  {
    "name": "Kandhari Travels Inc.",
    "coordinates": {
      "lat": 43.4398436,
      "lng": -80.52693599999999
    },
    "longitude": -80.52693599999999,
    "latitude": 43.4398436,
    "types": [
      "travel_agency",
      "point_of_interest",
      "establishment"
    ]
  },
  {
    "name": "Pro Sports Tours",
    "coordinates": {
      "lat": 43.45970199999999,
      "lng": -80.4865514
    },
    "longitude": -80.4865514,
    "latitude": 43.45970199999999,
    "types": [
      "travel_agency",
      "point_of_interest",
      "establishment"
    ]
  },
  {
    "name": "DM Silesia Travel",
    "coordinates": {
      "lat": 43.4388227,
      "lng": -80.5103195
    },
    "longitude": -80.5103195,
    "latitude": 43.4388227,
    "types": [
      "travel_agency",
      "point_of_interest",
      "establishment"
    ]
  },
  {
    "name": "Wah Immigration Consultancy Inc",
    "coordinates": {
      "lat": 43.46869699999999,
      "lng": -80.482035
    },
    "longitude": -80.482035,
    "latitude": 43.46869699999999,
    "types": [
      "travel_agency",
      "point_of_interest",
      "establishment"
    ]
  },
  {
    "name": "Worldbridge Immigration Services and Commissioner of Oaths",
    "coordinates": {
      "lat": 43.4420242,
      "lng": -80.4960207
    },
    "longitude": -80.4960207,
    "latitude": 43.4420242,
    "types": [
      "travel_agency",
      "point_of_interest",
      "establishment"
    ]
  },
  {
    "name": "Carlin Travels",
    "coordinates": {
      "lat": 43.444911,
      "lng": -80.490791
    },
    "longitude": -80.490791,
    "latitude": 43.444911,
    "types": [
      "travel_agency",
      "point_of_interest",
      "establishment"
    ]
  },
  {
    "name": "Desh Videsh Immigration Inc",
    "coordinates": {
      "lat": 43.44862120000001,
      "lng": -80.48661229999999
    },
    "longitude": -80.48661229999999,
    "latitude": 43.44862120000001,
    "types": [
      "travel_agency",
      "lawyer",
      "point_of_interest",
      "establishment"
    ]
  },
  {
    "name": "Freedom MBT Kitchener",
    "coordinates": {
      "lat": 43.44581089999999,
      "lng": -80.4877243
    },
    "longitude": -80.4877243,
    "latitude": 43.44581089999999,
    "types": [
      "travel_agency",
      "point_of_interest",
      "establishment"
    ]
  },
  {
    "name": "Kulligan",
    "coordinates": {
      "lat": 43.44601,
      "lng": -80.48124969999999
    },
    "longitude": -80.48124969999999,
    "latitude": 43.44601,
    "types": [
      "travel_agency",
      "point_of_interest",
      "establishment"
    ]
  },
  {
    "name": "Holiday Travel",
    "coordinates": {
      "lat": 43.4409323,
      "lng": -80.4859018
    },
    "longitude": -80.4859018,
    "latitude": 43.4409323,
    "types": [
      "travel_agency",
      "point_of_interest",
      "establishment"
    ]
  },
  {
    "name": "Sheri Keffer Immigration Consulting",
    "coordinates": {
      "lat": 43.4909719,
      "lng": -80.4871017
    },
    "longitude": -80.4871017,
    "latitude": 43.4909719,
    "types": [
      "travel_agency",
      "point_of_interest",
      "establishment"
    ]
  },
  {
    "name": "Murdoch Travel",
    "coordinates": {
      "lat": 43.49523479999999,
      "lng": -80.4907315
    },
    "longitude": -80.4907315,
    "latitude": 43.49523479999999,
    "types": [
      "travel_agency",
      "point_of_interest",
      "establishment"
    ]
  },
  {
    "name": "Canada Immigration Express",
    "coordinates": {
      "lat": 43.4981859,
      "lng": -80.5432194
    },
    "longitude": -80.5432194,
    "latitude": 43.4981859,
    "types": [
      "travel_agency",
      "point_of_interest",
      "establishment"
    ]
  },
  {
    "name": "Frederick Travel Waterloo",
    "coordinates": {
      "lat": 43.4969587,
      "lng": -80.5475388
    },
    "longitude": -80.5475388,
    "latitude": 43.4969587,
    "types": [
      "travel_agency",
      "point_of_interest",
      "establishment"
    ]
  },
  {
    "name": "Merit Travel",
    "coordinates": {
      "lat": 43.49737509999999,
      "lng": -80.54723129999999
    },
    "longitude": -80.54723129999999,
    "latitude": 43.49737509999999,
    "types": [
      "travel_agency",
      "point_of_interest",
      "establishment"
    ]
  },
  {
    "name": "AS YOU LIKE TRAVEL",
    "coordinates": {
      "lat": 43.4351879,
      "lng": -80.5552952
    },
    "longitude": -80.5552952,
    "latitude": 43.4351879,
    "types": [
      "travel_agency",
      "point_of_interest",
      "establishment"
    ]
  },
  {
    "name": "V Settle Immigration Services",
    "coordinates": {
      "lat": 43.4633486,
      "lng": -80.46554569999999
    },
    "longitude": -80.46554569999999,
    "latitude": 43.4633486,
    "types": [
      "travel_agency",
      "lawyer",
      "point_of_interest",
      "establishment"
    ]
  },
  {
    "name": "Kitchener Airline Reservation",
    "coordinates": {
      "lat": 43.44945070000001,
      "lng": -80.4687472
    },
    "longitude": -80.4687472,
    "latitude": 43.44945070000001,
    "types": [
      "travel_agency",
      "point_of_interest",
      "establishment"
    ]
  },
  {
    "name": "Vacation Cottage Rentals Ontario",
    "coordinates": {
      "lat": 43.438277,
      "lng": -80.47768909999999
    },
    "longitude": -80.47768909999999,
    "latitude": 43.438277,
    "types": [
      "real_estate_agency",
      "travel_agency",
      "point_of_interest",
      "establishment"
    ]
  },
  {
    "name": "Canada International Travel Service Inc.",
    "coordinates": {
      "lat": 43.44810529999999,
      "lng": -80.5749797
    },
    "longitude": -80.5749797,
    "latitude": 43.44810529999999,
    "types": [
      "travel_agency",
      "point_of_interest",
      "establishment"
    ]
  },
  {
    "name": "ADLY Travel",
    "coordinates": {
      "lat": 43.4106766,
      "lng": -80.5021787
    },
    "longitude": -80.5021787,
    "latitude": 43.4106766,
    "types": [
      "travel_agency",
      "point_of_interest",
      "establishment"
    ]
  }
]